"lat","lng","DAC","place_name","place_type"
32.7303569771542,-117.078773816046,"N","Oak Park","neighborhood"
33.2495298697668,-117.314879399582,"Y","North Valley","neighborhood"
34.2657218462797,-118.42624162783,"Y","Pacoima","neighborhood"
34.2495536795205,-118.419458238843,"N","Pacoima","neighborhood"
34.3095081636078,-118.43777900871,"Y","Sylmar","neighborhood"
34.2909015953461,-118.507468698016,"N","Granada Hills North","neighborhood"
34.1666155578538,-118.398425053107,"N","Valley Village","neighborhood"
34.2002074221032,-118.479304072523,"Y","Lake Balboa","neighborhood"
34.1884880548881,-118.477274010743,"N","Lake Balboa","neighborhood"
34.1992761567818,-118.469987321475,"Y","Van Nuys","neighborhood"
34.204665251439,-118.560086715777,"N","Reseda","neighborhood"
33.9481221301371,-118.287238106632,"Y","Vermont Vista","neighborhood"
34.1623229092603,-118.262441424974,"Y","Verdugo Viejo","neighborhood"
34.1636236109788,-118.267806384556,"N","Glenwood","neighborhood"
34.1647372111771,-118.277927076749,"Y","Glenwood","neighborhood"
34.152224732924,-118.259661927201,"Data Not Available","Vineyard","neighborhood"
34.2618978739941,-118.475550768763,"N","Mission Hills","neighborhood"
34.2629392175404,-118.485983613512,"N","Granada Hills South","neighborhood"
34.229941196812,-118.370051207408,"Y","Sun Valley","neighborhood"
37.672404774966,-122.485407494169,"N","St. Francis","neighborhood"
34.2219612621454,-118.390648771265,"N","Sun Valley","neighborhood"
34.1840875489554,-118.59337328442,"N","Warner Center","neighborhood"
34.0741919117864,-118.380142305153,"N","Beverly Grove","neighborhood"
34.049855417312,-118.387407091654,"N","Pico - Robertson","neighborhood"
37.6588142729184,-122.463496134674,"N","Serramonte","neighborhood"
37.6514776582171,-122.461929967004,"N","Westborough","neighborhood"
34.0335009355971,-118.345489318891,"Y","Jefferson Park","neighborhood"
34.0348619589533,-118.278622598023,"Y","University Park","neighborhood"
34.0074703321535,-118.281841487119,"Data Not Available","Vermont Harbor","neighborhood"
34.0083388550902,-118.279652664989,"Y","Historic South Central","neighborhood"
33.9974799169601,-118.326591824411,"N","Park Mesa Heights","neighborhood"
33.9784690703821,-118.296974107529,"N","Vermont-Slauson","neighborhood"
38.770733859492,-121.352453171494,"Y","Sun City","neighborhood"
38.7812586550259,-121.352211443587,"N","Sun City","neighborhood"
38.7729988314983,-121.335511519406,"N","Quail Glen","neighborhood"
33.706033478443,-118.311365411298,"Data Not Available","San Pedro","neighborhood"
34.1191239789982,-117.213263447575,"Y","Cypress","neighborhood"
34.1249030741415,-117.213112858865,"Y","San Andreas","neighborhood"
34.0561413874182,-117.183648438528,"N","Downtown Redlands","neighborhood"
32.6941546714331,-117.090176480903,"Y","Lincoln Park","neighborhood"
33.9349139608805,-118.228003643979,"Y","Watts","neighborhood"
34.1660572146225,-118.258099829519,"N","Verdugo Viejo","neighborhood"
34.0380071207897,-117.489058988214,"N","Southridge Village","neighborhood"
34.096153920876,-117.341181327409,"Y","Rancho West","neighborhood"
38.447587351548,-122.614729262876,"N","Oakmont Village Association","neighborhood"
37.3514776297143,-121.793988417049,"N","Terrace Hill","neighborhood"
37.3131343931114,-121.778496488794,"N","Fowler Creek","neighborhood"
37.3003712548894,-121.794402359444,"N","Silver Creek High School","neighborhood"
37.3147040801898,-121.947773255886,"N","Magliocco - Huff","neighborhood"
37.3281284851824,-121.898298417992,"N","Park - Lorraine","neighborhood"
37.318456192752,-121.89196531623,"N","Gardner","neighborhood"
37.757432900685,-122.445214320265,"N","Clarendon Heights","neighborhood"
37.7484816260498,-122.446219470223,"N","Midtown Terrace","neighborhood"
37.7529989877232,-122.446109583108,"N","Upper Market","neighborhood"
37.7627990913057,-122.402106051669,"N","Potrero Hill","neighborhood"
37.7306636895801,-122.416237635871,"N","Portola","neighborhood"
37.7259983800022,-122.403641734119,"Data Not Available","Portola","neighborhood"
37.7212729346079,-122.45428165564,"N","Ingleside","neighborhood"
37.7194692668182,-122.450184835607,"N","Oceanview","neighborhood"
37.7206538542992,-122.469395585233,"Data Not Available","Ingleside","neighborhood"
34.1734598156542,-117.289179195232,"Y","Cajon","neighborhood"
34.1339547925331,-117.221887283658,"Data Not Available","San Andreas","neighborhood"
33.1774520502231,-117.263120165815,"N","Ocean Hills","neighborhood"
33.146279461141,-117.067280200769,"N","Midway","neighborhood"
33.1285701474078,-117.084927178746,"Y","Central Escondido","neighborhood"
38.7516945953704,-121.253616629594,"N","Lead Hill","neighborhood"
34.173185221652,-118.506776716631,"N","Encino Village","neighborhood"
34.0465563840309,-117.379605295615,"Y","Agua Mansa Industrial Corridor","neighborhood"
34.1352423954696,-118.256413587284,"N","Pacific - Edison","neighborhood"
34.1347114908254,-118.259515623746,"Y","Pacific - Edison","neighborhood"
34.1379707031477,-118.251375716683,"Data Not Available","Mariposa","neighborhood"
34.1354280876626,-118.253350312647,"Y","Mariposa","neighborhood"
34.1295187098056,-118.25257579604,"Y","Adams Hill","neighborhood"
34.1754674208098,-117.309331447493,"N","Cajon","neighborhood"
34.112050291554,-117.305792033067,"Y","La Plaza","neighborhood"
34.1330037922551,-118.252211201633,"Y","Tropico","neighborhood"
34.1312416891823,-118.247594347837,"Data Not Available","Adams Hill","neighborhood"
34.084589661737,-118.346367545071,"N","Melrose","neighborhood"
34.1340545196938,-117.239990761571,"Y","San Gorgonio","neighborhood"
34.1090747981411,-118.282893724127,"N","Los Feliz","neighborhood"
34.0880046275248,-118.272330753987,"N","Silver Lake","neighborhood"
34.0670641569038,-118.3573740302,"N","La Brea","neighborhood"
33.9297618332855,-118.285904919929,"Data Not Available","Vermont Vista","neighborhood"
34.0440056172054,-118.56110453818,"Data Not Available","Pacific Palisades","neighborhood"
34.0504458133547,-118.403979824998,"N","Cheviot Hills","neighborhood"
34.0314619866109,-118.394823045305,"N","Castle Heights","neighborhood"
34.0304631426346,-118.445450684186,"N","Sawtelle","neighborhood"
32.6333860064648,-117.015631891485,"N","Rancho\Del Rey III","neighborhood"
37.3090721382981,-121.765607044815,"N","Chaboya","neighborhood"
37.3528049325348,-121.851062161274,"Y","Mayfair North","neighborhood"
32.6490093340122,-117.010143371075,"N","Rancho del Rey","neighborhood"
38.4191551574254,-122.737420518927,"N","Southwest Santa Rosa","neighborhood"
37.3649895377752,-121.846459792138,"Y","Alexian","neighborhood"
37.3627093617167,-121.839370258221,"N","Gramercy and Alexander","neighborhood"
37.3189071560007,-121.898326614881,"Data Not Available","Gardner","neighborhood"
37.3117740798671,-121.858572738288,"Y","Spartan Keyes and Wool Creek","neighborhood"
37.3273785354549,-121.850441849318,"N","Kennedy","neighborhood"
37.7162921922472,-122.464970237207,"N","Ingleside Heights","neighborhood"
37.7624707900424,-122.4808166594,"N","Outer Sunset","neighborhood"
37.7476497777958,-122.477658126366,"N","Parkside","neighborhood"
37.5867569056433,-122.375673088143,"N","Easton Addition","neighborhood"
37.7154350732158,-122.476550393343,"Y","Parkmerced","neighborhood"
37.7190557433755,-122.476875716521,"N","Parkmerced","neighborhood"
37.4738911182321,-122.21024651983,"N","Fair Oaks","neighborhood"
33.9556791344459,-117.333417079679,"Y","Canyon Crest","neighborhood"
32.9098824703674,-117.093444744152,"N","Scripps Ranch","neighborhood"
32.9043002530471,-117.091322642571,"Data Not Available","Scripps Ranch","neighborhood"
34.054441043018,-117.197735874996,"Y","Redlands","neighborhood"
34.1754281870722,-117.317359514816,"Y","University","neighborhood"
34.1751955067057,-117.324288828652,"Data Not Available","University","neighborhood"
38.7546017293447,-121.332592588957,"Y","Woodcreek Oaks","neighborhood"
36.788371582966,-119.805120610558,"N","Fig Garden","neighborhood"
34.2333984889364,-118.465772322481,"Y","North Hills East","neighborhood"
33.8129087113294,-118.129603401397,"N","South of Conant","neighborhood"
33.7395654536152,-118.283613189528,"Data Not Available","Central San Pedro","neighborhood"
32.6173448242412,-117.031058514641,"N","Sunbow","neighborhood"
38.706320424958,-121.37955818029,"N","North Country","neighborhood"
34.0604481849354,-118.271933631062,"Y","Westlake South","neighborhood"
34.0457568210842,-118.290079486917,"Data Not Available","Pico Union","neighborhood"
33.7571690944231,-117.879581569553,"Y","Washington Square","neighborhood"
38.657907053143,-121.501101260825,"N","Natomas Park","neighborhood"
33.7852604321528,-117.910525764196,"N","Anaheim Resort","neighborhood"
33.75068761555,-117.924572308202,"Y","Riverview West","neighborhood"
38.6387191658123,-121.533696500447,"N","Gateway West","neighborhood"
38.6365891001927,-121.527966069706,"Y","Gateway West","neighborhood"
38.6132703458946,-121.526475308896,"N","Willow Creek","neighborhood"
33.7642884107282,-117.89997577146,"N","Edna Park","neighborhood"
33.7579834243142,-117.915906519595,"Y","Santa Anita","neighborhood"
33.7528007074007,-117.913543683897,"N","Santa Anita","neighborhood"
34.1652406909746,-118.139335899934,"Data Not Available","North Central","neighborhood"
34.1991554341326,-118.411648085536,"Y","Valley Glen","neighborhood"
34.0223847211111,-118.491047117936,"N","Downtown","neighborhood"
34.1191371047562,-118.200907423252,"Y","Highland Park","neighborhood"
37.379160603859,-121.845133345291,"N","Mayglen - Little Rock","neighborhood"
37.3734402749935,-121.848912960507,"N","Cedarville - Giannotta","neighborhood"
37.3604544083303,-121.860546276856,"Y","El Ranco Verde","neighborhood"
37.3773493408662,-121.82835981273,"N","La Pala","neighborhood"
37.3739467126061,-121.83165750211,"N","John Vianney","neighborhood"
37.3946482244836,-121.852470056171,"N","St. Victor","neighborhood"
37.3452835920815,-121.837552121586,"Y","Poco","neighborhood"
37.3034742804332,-121.86987970097,"N","The Plant","neighborhood"
34.1506190621308,-118.267197214433,"Y","Vineyard","neighborhood"
37.3262029192012,-121.858771357574,"Y","Little Saigon and Spring Brook","neighborhood"
37.4067400722558,-121.851011888418,"N","Piedmont","neighborhood"
37.3182380906384,-121.922253333801,"N","Buena Vista","neighborhood"
33.7422100678548,-118.104790130923,"N","Old Towne","neighborhood"
33.7461939099053,-118.10780882154,"N","Bridgeport","neighborhood"
33.7678062786199,-118.180628865491,"Y","Alamitos Beach","neighborhood"
33.8797239114266,-118.17266036159,"Y","North Long Beach","neighborhood"
34.0276107477337,-118.320030366926,"Data Not Available","Jefferson Park","neighborhood"
34.038777950266,-118.49233669761,"N","North of Montana","neighborhood"
34.1148262089592,-118.201715319245,"N","Highland Park","neighborhood"
37.7817784156504,-122.481568083411,"N","Little Russia","neighborhood"
37.7815250886342,-122.475363249398,"N","Central Richmond","neighborhood"
37.7852489862937,-122.475619482685,"N","Lake Street","neighborhood"
37.7731657548016,-122.491767558531,"N","Outer Richmond","neighborhood"
37.7376329136275,-122.388398504089,"N","Bayview","neighborhood"
33.7917119821322,-118.17450263388,"Y","Poly High","neighborhood"
34.0036370024579,-118.442427925398,"N","Mar Vista","neighborhood"
34.0121166057671,-118.312632891712,"Data Not Available","Leimert Park","neighborhood"
37.8447128810908,-122.241150867988,"N","Upper Rockridge","neighborhood"
37.8262596190803,-122.215755678736,"N","Montclair","neighborhood"
37.8036848785918,-122.212101269163,"N","Upper Dimond","neighborhood"
37.7839133481339,-122.196377398787,"N","Maxwell Park","neighborhood"
37.7813136637867,-122.184940141046,"N","Mills College","neighborhood"
37.7899307609003,-122.181550232749,"N","Redwood Heights","neighborhood"
37.7866783617977,-122.184675208521,"Data Not Available","Redwood Heights","neighborhood"
37.8478651490466,-122.274280908657,"N","South Berkeley","neighborhood"
37.7171725095444,-122.136128951182,"N","Assumption Parish","neighborhood"
37.7129836590276,-122.132970931737,"N","Upper Bal","neighborhood"
34.2391229550565,-118.462108358645,"N","North Hills East","neighborhood"
34.2371714613112,-118.445887841698,"Y","Arleta","neighborhood"
34.2407836926045,-118.446353175936,"N","Arleta","neighborhood"
37.7032550598836,-122.130737211536,"N","Lower Bal","neighborhood"
37.635258296084,-122.07981464969,"N","Harder-Tennyson","neighborhood"
37.6417775035378,-122.067411101813,"N","Whitman - Wocine","neighborhood"
38.7604173340447,-121.328405113218,"N","Woodcreek Oaks","neighborhood"
38.7643409299691,-121.303458191032,"Y","Kaseberg - Kingswood","neighborhood"
38.8044327969396,-121.334619585048,"N","Blue Oaks","neighborhood"
38.785067066056,-121.293358462987,"N","Highland Reserve","neighborhood"
37.5519841170394,-121.948804628013,"N","Kimber - Gomes","neighborhood"
37.542620789925,-121.936324487692,"N","Mission Valley","neighborhood"
34.0664488050991,-117.154175671483,"N","North Redlands","neighborhood"
37.9133247201329,-122.376881695452,"N","Point Richmond","neighborhood"
37.9275654061007,-122.345189954354,"Y","Stege","neighborhood"
37.9282598690625,-122.356529553873,"N","Coronado","neighborhood"
34.0054861597443,-118.313022522996,"Y","Leimert Park","neighborhood"
34.1415400221272,-118.231270369951,"N","Somerset","neighborhood"
34.2117945571924,-118.590663047874,"N","Canoga Park","neighborhood"
33.8115712921934,-118.323780562959,"N","Southeast Torrance","neighborhood"
33.8211245308811,-118.09609824267,"N","Carson Park","neighborhood"
34.1217435247332,-117.304691085388,"Y","Roosevelt","neighborhood"
34.0895728288989,-118.384972162052,"Y","Norma Triangle","neighborhood"
34.0253571875112,-118.337736267295,"Y","Crenshaw","neighborhood"
34.0035275984502,-118.39679948807,"N","Studio Village","neighborhood"
34.0504683418835,-117.16139585873,"N","South Redlands","neighborhood"
34.0608374027668,-117.16504325891,"Y","North Redlands","neighborhood"
34.0592418376715,-118.269484354738,"Y","Westlake North","neighborhood"
34.1969567042284,-118.419750744683,"N","Valley Glen","neighborhood"
34.0313932761252,-118.385832954575,"Y","Palms","neighborhood"
34.0354595034571,-118.487937351628,"N","Wilshire Montana","neighborhood"
37.3597189788549,-121.827678761685,"N","Lyndale","neighborhood"
37.3915616606096,-121.868007594649,"N","Old Post","neighborhood"
37.3956805302791,-121.899320966416,"N","Brokaw","neighborhood"
37.2976303009136,-121.909471800142,"N","Willow Glen West","neighborhood"
34.0250831449123,-118.330243587152,"N","Crenshaw","neighborhood"
34.058512144182,-118.076654090118,"Y","Garvey","neighborhood"
37.3855604250613,-121.879243459667,"N","Vinci North","neighborhood"
37.2895904796813,-121.900687278385,"N","Cherry","neighborhood"
37.2812630055666,-121.93390496408,"N","Bonnett","neighborhood"
37.768927545288,-122.483950726822,"Data Not Available","Golden Gate Park","neighborhood"
37.7456140684987,-122.38947770522,"Data Not Available","Islais Creek","neighborhood"
37.7904205855694,-122.410540389475,"N","Lower Nob Hill","neighborhood"
37.7861600809295,-122.413901722972,"Y","Tenderloin","neighborhood"
33.9897388336416,-117.364718657029,"N","Downtown Riverside","neighborhood"
34.0111092856891,-117.370098098024,"N","Northside","neighborhood"
38.7669617479053,-121.239576617935,"N","East Roseville Parkway","neighborhood"
38.754997392664,-121.271783225439,"Y","Enwood","neighborhood"
38.7638515179076,-121.289573972877,"N","Diamond Oaks","neighborhood"
34.1413441944437,-117.215104078243,"Y","Amber Hills","neighborhood"
34.1443124309231,-117.203315596897,"N","Small Canyon","neighborhood"
34.1416707366102,-117.195315378861,"Y","Small Canyon","neighborhood"
38.0316070490145,-121.319899616565,"Y","Bear Creek","neighborhood"
38.0021008173266,-121.292814410531,"Y","Valley Oak","neighborhood"
33.7346190043488,-117.924369707494,"N","Riverview West","neighborhood"
33.7349888077971,-117.941694057496,"N","West Grove Valley","neighborhood"
36.7974920664565,-119.654985464877,"N","Loma Vista","neighborhood"
33.7117928947347,-117.995201253865,"Y","Oak View","neighborhood"
33.7047843409237,-117.99343185475,"N","Oak View","neighborhood"
33.7183275258853,-118.066787535727,"N","Sunset Beach","neighborhood"
38.4678200639746,-121.437280372603,"N","Valley Hi / North Laguna","neighborhood"
37.4060290875054,-122.12994969304,"N","Green Acres","neighborhood"
37.255917585803,-121.917614212639,"N","Oster","neighborhood"
37.2522091119878,-121.901419545404,"N","Branham - Kirk","neighborhood"
37.2391084996184,-121.929939522287,"N","Cambrian","neighborhood"
37.248190528659,-121.87705041746,"N","Almaden Community Association","neighborhood"
37.2351915511047,-121.782352330391,"N","Santa Teresa","neighborhood"
34.1249161686,-117.221840611155,"N","San Andreas","neighborhood"
34.1248801018618,-117.20216081167,"N","Crossroads","neighborhood"
37.7393664130887,-122.433318692089,"N","Fairmount","neighborhood"
37.731485176191,-122.402035553491,"N","Silver Terrace","neighborhood"
37.7323853770492,-122.385450204288,"Data Not Available","Bayview","neighborhood"
34.130702862508,-117.238740350199,"N","San Gorgonio","neighborhood"
34.1321460841107,-117.202165820164,"Y","Crossroads","neighborhood"
37.7870099495169,-122.501586020715,"Data Not Available","Lincoln Park","neighborhood"
38.5490399761926,-121.761886966264,"Data Not Available","Central Davis","neighborhood"
37.8078536755817,-122.217203816737,"N","Glenview","neighborhood"
37.8018614190559,-122.219160274956,"Y","Glenview","neighborhood"
37.7775164033913,-122.176423927034,"N","Millsmont","neighborhood"
37.7727036707466,-122.17318614976,"Y","Millsmont","neighborhood"
37.8857871530613,-122.250141077616,"N","Berkeley Hills","neighborhood"
37.8834900641023,-122.264215518679,"N","North Berkeley","neighborhood"
37.8805195943557,-122.287061775362,"N","Northwest Berkeley","neighborhood"
33.4584384181046,-117.097851777285,"N","Wolf Creek","neighborhood"
37.6973548231865,-122.142877146586,"N","Floresta Gardens - Bradrick","neighborhood"
37.6938800796966,-122.147378801768,"N","Washington Manor - Bonaire","neighborhood"
33.9602620405267,-117.422270265371,"Y","Grand","neighborhood"
37.5518259996851,-122.000631722348,"N","Glenmoor","neighborhood"
37.6399271296467,-122.057574559231,"N","Mission - Garin","neighborhood"
37.618527755022,-122.031964271854,"N","Fairway Prk","neighborhood"
37.611200355072,-122.033798723205,"Data Not Available","Fairway Prk","neighborhood"
33.8195091236311,-116.541250228771,"Y","Downtown Palm Springs","neighborhood"
37.5372859149264,-121.971154037994,"N","South Sundale","neighborhood"
40.5962703958644,-122.370523302363,"Y","Bluffs","neighborhood"
40.6013805823401,-122.354731442146,"Y","Tanglewood","neighborhood"
40.5715741316159,-122.434413485876,"N","Mary Lake","neighborhood"
40.579253231873,-122.421249797263,"N","Lakeside Avenues Subdivision","neighborhood"
37.9306396512883,-122.329846758923,"Data Not Available","Park Plaza","neighborhood"
38.8927225761303,-121.283957686855,"N","Downtown Lincoln","neighborhood"
40.5893575953195,-122.404802722168,"Y","Lakeview","neighborhood"
37.9273351280848,-122.326693593662,"Y","Park Plaza","neighborhood"
40.6215076322886,-122.396059337349,"Y","Jennifer Manor","neighborhood"
40.6175731625442,-122.369852908335,"Y","Redding Valley View Subdivision","neighborhood"
40.5468453093264,-122.326678887212,"N","Saratoga North-amend 2565","neighborhood"
40.5547105832684,-122.349534187233,"Y","Echo Oaks Subdivision","neighborhood"
40.5474115793941,-122.339575939039,"Y","Alta Mesa","neighborhood"
40.5888232009145,-122.427560160928,"N","Sunset Terrace","neighborhood"
40.5680031864651,-122.419749759136,"N","Ridgeview","neighborhood"
40.5236881096777,-122.364205613753,"N","Girvan","neighborhood"
40.5435001743694,-122.346396564598,"N","Enterprise","neighborhood"
40.5428446183754,-122.333325155058,"N","Victor Estates","neighborhood"
40.6057132953292,-122.368063848039,"Y","Woodcliff Estates","neighborhood"
40.6152913554985,-122.381733800278,"Y","Northpoint","neighborhood"
34.1103399571789,-117.221871920869,"N","Cypress","neighborhood"
40.5889191632702,-122.347712680902,"Y","Mt Shasta Mall","neighborhood"
40.5983376639441,-122.344930518358,"Y","Quail Ridge","neighborhood"
36.7104411440843,-119.812304817756,"N","Edison","neighborhood"
34.0960381463618,-117.345895467459,"N","Rancho West","neighborhood"
34.154641255844,-117.308872397696,"Data Not Available","Shandin Hills","neighborhood"
34.1394161958607,-117.219675905733,"Data Not Available","Amber Hills","neighborhood"
34.1571327775018,-118.26991481958,"N","Fremont Park","neighborhood"
34.1598403558123,-118.277683257785,"N","Pelanconi","neighborhood"
38.0246416603133,-121.357628125847,"Y","Sherwoods Manor","neighborhood"
37.3766552845867,-122.165771848695,"N","Palo Alto Hills","neighborhood"
37.2521852039626,-121.879247343533,"N","Dentwood","neighborhood"
37.306903075498,-121.824508759713,"N","Windmill Springs","neighborhood"
37.3058328375985,-121.805632791856,"N","Brigadoon","neighborhood"
37.3103058912392,-121.77989008755,"N","Fowler","neighborhood"
37.7181798527642,-122.418761343452,"Y","McLaren Park","neighborhood"
36.5569596482232,-121.923174683052,"N","Northwest Carmel","neighborhood"
32.8148107672136,-117.22675427362,"N","Pacific Beach","neighborhood"
33.912229267568,-117.453679385169,"Y","Arlington","neighborhood"
34.0139376305841,-117.4295959045,"N","Sunnyslope","neighborhood"
32.6333687142312,-116.968694807518,"Data Not Available","Eastlake Land Swap","neighborhood"
34.1560937031986,-118.697010389409,"N","Malibu Canyon","neighborhood"
34.1712109108976,-118.287298102643,"Data Not Available","Grandview","neighborhood"
37.7786361846465,-122.431776637653,"Y","Alamo Square","neighborhood"
37.7562388242312,-122.418857278542,"N","Mission District","neighborhood"
37.7580711975913,-122.4328862583,"N","Eureka Valley","neighborhood"
37.7850294130471,-122.456262954799,"N","Jordan Park","neighborhood"
37.757627025137,-122.429057551062,"N","Dolores Heights","neighborhood"
37.7914584036563,-122.417495148024,"N","Nob Hill","neighborhood"
37.7956764975338,-122.405824920533,"Y","Chinatown","neighborhood"
37.7772028970599,-121.552688207218,"N","Bethany Village","neighborhood"
37.9353266076563,-121.302824713405,"N","Seaport","neighborhood"
38.053177660723,-121.360176414898,"N","Spanos Park","neighborhood"
37.9978830782908,-121.353684302499,"Y","Lincoln Village West","neighborhood"
38.0356871706772,-121.33402933746,"N","Stonewood","neighborhood"
38.0401518939216,-121.339713174336,"Y","Stonewood","neighborhood"
37.9156358604521,-121.232285237341,"Y","Park","neighborhood"
37.9033633813533,-121.290025094081,"N","Weston Ranch","neighborhood"
38.0248594223956,-121.275053430657,"N","Valley Oak","neighborhood"
38.0491361089618,-121.380471075947,"N","Bear Creek","neighborhood"
37.9304153262063,-121.307296667708,"Y","Seaport","neighborhood"
37.5813353385668,-122.000367402162,"N","Niles","neighborhood"
37.7249275188739,-122.1508627777,"N","Estudillo Estates - Glen","neighborhood"
37.7220801395432,-122.148455713079,"Y","Assumption Parish","neighborhood"
37.5605906466241,-122.059336694274,"N","Ardenwood","neighborhood"
37.5708711278617,-122.038004993399,"N","Northgate","neighborhood"
37.550770776638,-121.963335386076,"N","Central District","neighborhood"
37.6473248155306,-122.114285489176,"N","Mt. Eden","neighborhood"
37.548001607523,-122.013139214436,"N","Centerville","neighborhood"
37.4861110923067,-121.958714018796,"N","Baylands","neighborhood"
37.4943174645521,-121.941266273033,"Data Not Available","East Industrial","neighborhood"
35.292326152065,-119.052261293003,"Y","Ridgeview Estates","neighborhood"
35.274220863425,-119.052253128693,"Y","Stone Creek","neighborhood"
38.6105800049398,-121.501497488913,"Y","Natomas Corporate Center","neighborhood"
38.4429676927569,-121.430192639735,"Data Not Available","Valley Hi / North Laguna","neighborhood"
38.5429384705205,-121.238999833389,"N","Anatolia Village","neighborhood"
38.6104875654826,-121.507578764498,"Data Not Available","Natomas Corporate Center","neighborhood"
38.4137761631467,-122.761337203147,"N","Wright Area Action Group","neighborhood"
38.4112476406334,-122.77937386502,"Data Not Available","Wright Area Action Group","neighborhood"
38.4689668200077,-122.643743519274,"N","Skyhawk Commmunity","neighborhood"
37.4974427711005,-121.932323143929,"N","East Industrial","neighborhood"
37.6645352583913,-122.093871683077,"N","Burbank","neighborhood"
37.5671753700202,-122.015778424791,"N","Brookvale","neighborhood"
37.6516414121859,-122.08532723565,"N","Jackson Triangle","neighborhood"
37.5660852793562,-121.998511049584,"N","Parkmont","neighborhood"
37.6401439994004,-122.071895368397,"Y","Harder-Tennyson","neighborhood"
37.5719467654535,-121.982471203447,"Data Not Available","Niles","neighborhood"
37.6758166800712,-122.068422856545,"Data Not Available","Upper B Street","neighborhood"
37.6620445938244,-122.067789400572,"N","Mission/Foothills","neighborhood"
37.5419416626675,-121.987270511773,"N","Sundale","neighborhood"
37.5364825882121,-121.924964621031,"N","Mission San Jose","neighborhood"
37.7141014099106,-121.72927797929,"N","Springtown","neighborhood"
37.6297978039591,-122.050926190979,"Y","Mission - Garin","neighborhood"
37.5219038791118,-121.9534416553,"N","Grimmer","neighborhood"
37.7236052910698,-122.160471136005,"N","Old San Leandro","neighborhood"
37.7270843113213,-122.153074136562,"Y","Old San Leandro","neighborhood"
37.8221687414873,-122.249689931529,"N","Grand Lake","neighborhood"
37.8031183895552,-122.263844266158,"N","Lakeside","neighborhood"
37.8026531788696,-122.262672841798,"Y","Lakeside","neighborhood"
37.8010980102481,-122.265120564049,"N","Civic Center","neighborhood"
37.7934620052733,-122.265816727711,"N","Produce and Waterfront","neighborhood"
37.7940367733117,-122.254425828879,"N","Merritt","neighborhood"
37.8015805808094,-122.250209805819,"Y","Cleveland Heights","neighborhood"
37.8092376341245,-122.27047573693,"N","Uptown","neighborhood"
37.8078686300308,-122.274265805161,"Data Not Available","Uptown","neighborhood"
37.8138173320278,-122.263562529398,"N","Northgate - Waverly","neighborhood"
37.8005389390838,-122.276586338906,"N","Old Oakland","neighborhood"
37.8063365147763,-122.273006146637,"Y","Downtown","neighborhood"
37.8667342340052,-122.253001555778,"Data Not Available","Southside","neighborhood"
37.78627235148,-122.170414908743,"N","Caballo Hills","neighborhood"
37.8703657800329,-122.267566012424,"Y","Downtown Berkeley","neighborhood"
37.856749584707,-122.220090364169,"N","Claremont Hills","neighborhood"
37.8132259231293,-122.256473145744,"N","Adams Point","neighborhood"
37.5641178125136,-121.971366804988,"N","Cherry - Guardino","neighborhood"
37.8110389980026,-122.271400897118,"Y","Uptown","neighborhood"
37.652167670223,-122.039718241006,"N","Hayward Highland","neighborhood"
37.8110229490768,-122.30191092721,"N","Prescott","neighborhood"
37.5354025103249,-121.959225955157,"Y","Irvington","neighborhood"
37.4709739894971,-121.913424546253,"N","Warm Springs","neighborhood"
37.8115856789272,-122.288859996947,"Y","Oak Center","neighborhood"
37.8319549848162,-122.252855046068,"N","Piedmont Avenue","neighborhood"
37.5609407544265,-121.970882153158,"Data Not Available","Cherry - Guardino","neighborhood"
37.8654453749753,-122.263213752331,"Y","Southside","neighborhood"
37.8675801349264,-122.271491101601,"N","Downtown Berkeley","neighborhood"
37.8513526247032,-122.269306917,"N","Bushrod","neighborhood"
38.7796664137156,-121.278400027334,"N","Harding","neighborhood"
38.864198788429,-121.235968399859,"N","Verdera","neighborhood"
38.5398876949493,-121.731016798082,"Y","Interland/Univ. Research Park","neighborhood"
38.5656114019631,-121.726799270838,"N","Green Meadows","neighborhood"
38.5608053596484,-121.71554905567,"N","Slide Hill Park","neighborhood"
38.5529920314935,-121.722528157266,"Y","Rancho Yolo","neighborhood"
38.5446423430657,-121.702620407993,"N","Willowcreek","neighborhood"
37.5487600622744,-122.302994461636,"N","South San Mateo","neighborhood"
37.5829864266796,-122.329210934714,"Y","North Central","neighborhood"
37.5710895631363,-122.299936832487,"N","Shoreview","neighborhood"
37.4677917059234,-122.217855774717,"N","Redwood Oaks","neighborhood"
37.6600620305616,-122.420488937968,"N","Sign Hill","neighborhood"
37.7012331882669,-122.460741657284,"N","Hillside","neighborhood"
37.5628205524979,-122.328433290793,"N","Baywood - Aragon","neighborhood"
37.6821295710883,-122.397645283775,"N","Bayside Ridge","neighborhood"
37.6596374386121,-122.43434576789,"N","Sunshine Gardens","neighborhood"
37.56915279098,-122.316934221987,"N","North Central","neighborhood"
37.7004651816678,-122.45618784216,"N","Crocker","neighborhood"
38.5054937180431,-121.544349499893,"N","Pocket","neighborhood"
38.5507751026905,-121.449314148955,"Y","Fairgrounds","neighborhood"
38.6487978983257,-121.443082372518,"N","Robla","neighborhood"
38.6293813431413,-121.452379892705,"N","West Del Paso Heights","neighborhood"
38.4690938754495,-121.388537590643,"N","Glen Ivy","neighborhood"
38.6512736917535,-121.514938539547,"N","RP Sports Complex","neighborhood"
38.5919785054703,-121.278414384974,"N","Prospect Green Open Space","neighborhood"
38.6188664391323,-121.5106667088,"N","South Natomas","neighborhood"
38.6605683281432,-121.539380170561,"N","Westlake","neighborhood"
38.2859616275936,-121.291949770194,"N","Country Meadows","neighborhood"
38.4757092165134,-121.42976873553,"Y","Parkway","neighborhood"
38.2722408459836,-121.296818953753,"N","River Oaks","neighborhood"
38.4940848507473,-121.412326834333,"Data Not Available","Lindale","neighborhood"
38.63789849402,-121.464304932091,"Y","Norwood Tech","neighborhood"
38.4177661273326,-121.475056194024,"N","Laguna West","neighborhood"
38.7007314574034,-121.369354202552,"N","Sunrise Antelope","neighborhood"
38.6530703612614,-121.462185825268,"Y","Glenwood Meadows","neighborhood"
38.6495654497919,-121.462813932983,"N","Glenwood Meadows","neighborhood"
38.6375681996187,-121.452205492932,"Y","West Del Paso Heights","neighborhood"
38.4735287903967,-121.325114400411,"N","Wildhawk West","neighborhood"
38.6273305238321,-121.462557786358,"Y","Strawberry Manor","neighborhood"
38.620974332233,-121.452225140489,"Y","Richardson Village","neighborhood"
38.514448268729,-121.538315123823,"N","Greenhaven","neighborhood"
38.5104980673634,-121.519028709628,"Y","South Land Park","neighborhood"
38.5600412045006,-121.47486335283,"Y","Newton Booth","neighborhood"
38.5362011550222,-121.445030009693,"N","Colonial Heights","neighborhood"
37.6556379794758,-122.448012577083,"N","Serra Highlands","neighborhood"
37.6813193490265,-122.404569144419,"N","Uptown Brisbane","neighborhood"
37.7059926201408,-122.458342745646,"Data Not Available","Crocker","neighborhood"
37.4814432046856,-122.234568462677,"N","Mount Carmel","neighborhood"
37.4732187550191,-122.231676678809,"Data Not Available","Roosevelt","neighborhood"
37.4681637103145,-122.227141056655,"N","Palm Park","neighborhood"
37.5381799782304,-122.242729551334,"N","Redwood Shores","neighborhood"
37.5750079978809,-122.349685386966,"N","Burlingame Park","neighborhood"
38.6382606078529,-121.433993570242,"Y","Del Paso Heights","neighborhood"
38.4875660176985,-121.509497342146,"Data Not Available","Z'berg Park","neighborhood"
38.6217197371991,-121.405653499747,"Y","Bohemian Village","neighborhood"
38.6961318269534,-121.369419365363,"N","Larchmont Village","neighborhood"
38.473433627738,-121.494069706733,"Y","Meadowview","neighborhood"
38.5574356495506,-121.430708537923,"N","East Sacramento","neighborhood"
38.4990541552223,-121.477001694977,"Y","Woodbine","neighborhood"
38.6730983291775,-121.19900188099,"N","Palisades","neighborhood"
38.5358942548445,-121.431301292043,"Y","Tahoe Park South","neighborhood"
38.5359818220994,-121.424299352925,"Y","Colonial Manor","neighborhood"
38.4784208020016,-121.491318780128,"N","Meadowview","neighborhood"
38.6145709287932,-121.491740879179,"Y","South Natomas","neighborhood"
38.5763038371233,-121.480818365862,"N","Midtown","neighborhood"
38.569493333717,-121.485248648438,"Data Not Available","Midtown","neighborhood"
38.719616633793,-121.339337977699,"N","Highland Hill","neighborhood"
38.6391202225851,-121.37198926368,"Y","Evergreen Estates","neighborhood"
38.7167251944563,-121.343109104324,"N","Greens","neighborhood"
38.5613929002394,-121.482216870122,"Y","Poverty Ridge","neighborhood"
38.5223653312042,-121.430668983958,"Y","Fruitridge Manor","neighborhood"
38.6141471727293,-121.461934283883,"Data Not Available","Noralto","neighborhood"
38.6314464677557,-121.462853547764,"Y","Johnson Heights","neighborhood"
38.6021389333236,-121.463054594616,"Y","Woodlake","neighborhood"
38.5774915170142,-121.466897032604,"N","Marshall School","neighborhood"
38.6087938287002,-121.453917714701,"Data Not Available","Old North Sacramento","neighborhood"
38.6126724760727,-121.449618965477,"Y","Old North Sacramento","neighborhood"
38.5738544865005,-121.497009873386,"Data Not Available","Downtown","neighborhood"
38.7229625595899,-121.379802756957,"N","Rapozo Court","neighborhood"
38.5373950788501,-121.467654431203,"Y","South Oak Park","neighborhood"
38.6716962162131,-121.535154165932,"N","Natomas Creek","neighborhood"
38.5222827122437,-121.452289452174,"Y","Sandra Heights","neighborhood"
38.5131434856018,-121.452168278907,"Y","Fruitridge Vista","neighborhood"
38.6368160632049,-121.518474439162,"Y","Natomas Crossing","neighborhood"
38.6805311178096,-121.512544156663,"Y","Heritage Park","neighborhood"
38.6676424604766,-121.137531945719,"N","Willow Creek Estates South","neighborhood"
38.5547581329613,-121.237180633174,"N","Anatolia","neighborhood"
38.6823917878651,-121.523367536044,"N","Heritage Park","neighborhood"
38.6821858060361,-121.23260167097,"Y","Woodhaven Heights","neighborhood"
38.6492067890819,-121.524832255352,"Y","RP Sports Complex","neighborhood"
38.5973912484101,-121.458575455867,"N","Johnston Business Park","neighborhood"
38.4893559044244,-121.411754967865,"Y","Scottsdale","neighborhood"
38.6810508807953,-121.132533375999,"N","Willow Creek Estates East","neighborhood"
38.6792391557476,-121.117727879231,"N","The Parkway","neighborhood"
38.4916505476459,-121.46107600373,"N","Parkway","neighborhood"
38.5578749992798,-121.454052003868,"N","Elmhurst","neighborhood"
38.5005165070568,-121.540085832569,"Y","Pocket","neighborhood"
38.5147290053734,-121.443398175086,"Y","Cloverdale Manor","neighborhood"
38.7067319737049,-121.372622983138,"Y","North Country","neighborhood"
38.5108517657978,-121.389994545405,"Y","Florin Fruitridge Industrial Park","neighborhood"
38.7170670527271,-121.361770991249,"Y","Antelope Highlands","neighborhood"
38.454662029388,-121.3572213225,"Data Not Available","Robbins Village","neighborhood"
38.4842414010481,-121.41104866546,"N","Cottonwood","neighborhood"
38.7073496055715,-121.339069594771,"N","East Antelope Woods","neighborhood"
38.4656943250138,-121.422248747169,"Y","Valley Hi / North Laguna","neighborhood"
38.666721859888,-121.264517671263,"N","Walnut Grove Estates","neighborhood"
38.5463359624276,-121.284508939312,"N","Mather","neighborhood"
38.6199191601698,-121.461466121881,"Y","Wills Acres","neighborhood"
38.5005793678163,-121.51210392847,"N","South Land Park","neighborhood"
38.7077807120895,-121.359072696197,"N","Winje Estates","neighborhood"
38.645920323571,-121.533854163971,"N","Sundance Lake","neighborhood"
38.6314730828276,-121.375646248838,"Y","Gary Gardens","neighborhood"
38.6397638665423,-121.35128680268,"N","Cypress Manor","neighborhood"
38.5708369567344,-121.397593428345,"N","Sierra Oaks","neighborhood"
38.5594583669705,-121.399254626175,"N","College/Glen","neighborhood"
38.5358769309989,-121.438634518743,"Y","Colonial Heights","neighborhood"
38.5771909221047,-121.484144498126,"Y","Midtown","neighborhood"
38.614757161787,-121.454343969791,"Y","Noralto","neighborhood"
38.6705041612582,-121.530413695897,"N","Creekside","neighborhood"
38.6340914473037,-121.51072026332,"N","Natomas Crossing","neighborhood"
38.4930260729052,-121.422087041589,"N","Lindale","neighborhood"
38.7234685174931,-121.371935233226,"N","Larchmont Antelope Creek","neighborhood"
38.7175461560612,-121.369429524813,"N","California Homestead","neighborhood"
38.6532060378453,-121.336198547376,"N","Cameron Ranch","neighborhood"
38.6546708075142,-121.32986655715,"Y","Green Tree","neighborhood"
37.495398801962,-122.241673223172,"N","Centennial","neighborhood"
37.5696349028888,-122.272140923424,"N","Vintage Park","neighborhood"
37.482443000786,-122.193924222408,"N","Friendly Acres","neighborhood"
37.6601810187422,-122.448225036479,"Data Not Available","Serra Highlands","neighborhood"
37.666504000474,-122.41396781029,"N","Paradise Valley","neighborhood"
37.4583248441195,-122.235922943383,"N","Woodside Plaza","neighborhood"
37.4737444453167,-122.224233708098,"Y","Palm Park","neighborhood"
37.4762394192662,-122.228174657766,"N","Roosevelt","neighborhood"
37.4595909215074,-122.149041625671,"N","The Willows","neighborhood"
37.6888451926774,-122.463552197475,"Y","Hillside","neighborhood"
37.6515196304247,-122.394262902137,"N","The East Side","neighborhood"
38.4880168762477,-121.419471616572,"Y","Fleming Heights","neighborhood"
38.5490895006284,-121.428056573031,"Data Not Available","Tahoe Park","neighborhood"
38.7154174223073,-121.377364123544,"Y","Antelope Heights","neighborhood"
38.6439848516905,-121.451239617465,"Y","Robla","neighborhood"
38.6104460403219,-121.490010106674,"N","River Gardens","neighborhood"
38.4628838995144,-121.365844405476,"N","Meadowbrook","neighborhood"
38.6489550010597,-121.433801195351,"N","Raley Industrial Park","neighborhood"
40.5836754275059,-122.374539497168,"Y","Kutras Riverside Addition","neighborhood"
40.4956858472258,-122.28401703523,"Y","Pacheco","neighborhood"
40.5034522811118,-122.341835566954,"N","Pacheco","neighborhood"
40.5893162101222,-122.328003206364,"N","Lema Ranch","neighborhood"
40.4860526987341,-122.305126912053,"Data Not Available","Wooded Acres","neighborhood"
33.9117893468774,-118.373492653436,"N","HollyGlen","neighborhood"
34.4195599315111,-119.730852616645,"N","Bel Air","neighborhood"
34.405477389919,-119.723567062496,"N","Alta Mesa","neighborhood"
34.4116306396387,-119.748586853244,"N","Campanil","neighborhood"
34.3993574582032,-119.728843035922,"N","West Mesa","neighborhood"
34.0489410907571,-117.78083649596,"Y","Phillips Ranch","neighborhood"
34.1306854582778,-118.660305875175,"N","Calabasas Park Estates","neighborhood"
34.1430463319323,-118.618533591496,"N","Greater Mulwood","neighborhood"
34.157883359402,-118.092783453772,"N","Daisy-Villa","neighborhood"
34.054767071918,-117.974330790348,"Y","Bassett","neighborhood"
34.1616909828416,-118.102181910679,"Data Not Available","Casa Grande","neighborhood"
34.1505398017923,-118.092586198264,"N","Lamanda Park","neighborhood"
34.4173149556863,-119.675538353976,"N","East Beach","neighborhood"
34.4193610066931,-119.695787539801,"N","Lower State","neighborhood"
34.4229240754752,-119.672980068129,"Y","Eastside","neighborhood"
34.4013613577104,-119.735871336433,"Data Not Available","West Mesa","neighborhood"
34.4213647335956,-119.712277840517,"Y","Oak Park","neighborhood"
34.4379801253674,-119.737909609134,"N","North State","neighborhood"
34.437856074893,-119.729768247766,"Y","Samarkand","neighborhood"
34.4312951378618,-119.730350504102,"N","Samarkand","neighborhood"
34.4260937050338,-119.676277941086,"Data Not Available","Eastside","neighborhood"
34.4118909107214,-119.733973388204,"N","Elings Park","neighborhood"
34.4258213638436,-119.728526823525,"Y","Westside","neighborhood"
34.434634478738,-119.74290397355,"N","Hitchcock","neighborhood"
32.627060046196,-116.989988365825,"N","Otay Ranch Village 1","neighborhood"
32.9943377512217,-117.163948846483,"N","Black Mountain Ranch Village","neighborhood"
32.9546542460167,-117.160344911725,"N","Rancho Peñasquitos","neighborhood"
32.6165693083705,-117.023416727273,"Data Not Available","Sunbow","neighborhood"
32.6307902239323,-116.963576860999,"N","Eastlake Land Swap","neighborhood"
33.0198175773109,-117.114746036987,"N","4S Ranch","neighborhood"
32.6231471925452,-116.995678302628,"Y","Otay Ranch Village 1","neighborhood"
32.9623356499104,-117.15521644129,"N","Torrey Highlands Village","neighborhood"
32.8739150474831,-117.217229746861,"N","University City","neighborhood"
32.573674494715,-117.082566711513,"Y","Nestor","neighborhood"
32.7732008802064,-117.147350430261,"N","Mission Valley East","neighborhood"
32.5860365777899,-117.027536609141,"N","Ocean View Hills","neighborhood"
32.783531287775,-117.150471449649,"N","Serra Mesa","neighborhood"
32.7432051934929,-117.253651392248,"N","Ocean Beach","neighborhood"
32.8303930056522,-117.156192078902,"N","Kearny Mesa","neighborhood"
32.8138572734047,-117.174269626773,"N","Clairemont Mesa East","neighborhood"
32.7420963904376,-117.235337481589,"N","Point Loma Heights","neighborhood"
32.9681637926632,-117.155317570632,"N","Torrey Highlands","neighborhood"
32.7308840137595,-117.14641999797,"N","Balboa Park","neighborhood"
33.7873541550346,-118.197227439121,"Y","Washington","neighborhood"
33.8169163141988,-118.368855916309,"N","Seaside","neighborhood"
33.831760410948,-118.386822891059,"N","South Redondo","neighborhood"
33.8329790392505,-118.371690159106,"N","Southwood","neighborhood"
32.7258318111852,-117.167786914239,"N","Little Italy","neighborhood"
32.7209456625892,-117.157944150247,"Y","Cortez Hill","neighborhood"
32.7162091420144,-117.167840597374,"Data Not Available","Core-Columbia","neighborhood"
32.7162643721685,-117.163656771111,"Y","Core-Columbia","neighborhood"
32.7244233728402,-117.172371277148,"N","Harborview","neighborhood"
32.7120866979942,-117.150745508837,"N","East Village","neighborhood"
32.7132218018997,-117.15534427626,"Y","East Village","neighborhood"
32.7149365752271,-117.124629826054,"Y","Stockton","neighborhood"
32.7538397192866,-117.134500132078,"N","North Park","neighborhood"
32.7512310756195,-117.144438957615,"N","University Heights","neighborhood"
33.1088307387523,-117.067757002418,"N","Central Escondido","neighborhood"
32.5448382303073,-117.038341369306,"Data Not Available","International Gateway Of The Americas","neighborhood"
32.7114598639211,-117.096245937159,"Y","Chollas View","neighborhood"
32.91066990124,-117.223004168645,"N","Carmel Valley","neighborhood"
32.7622060053606,-117.120211860848,"N","Normal Heights","neighborhood"
32.7324371802048,-117.101460776835,"Y","Azalea - Hollywood Park","neighborhood"
32.7468324777057,-117.103578809654,"Y","City Heights","neighborhood"
32.7537656879205,-117.128941699171,"Y","North Park","neighborhood"
32.633812249959,-116.991968753177,"Data Not Available","Otay Ranch Village 1","neighborhood"
32.5554146920848,-117.049659896394,"Y","San Ysidro","neighborhood"
32.559992772764,-116.950845195561,"N","Otay Mesa","neighborhood"
33.8529759705665,-118.372996058937,"N","West Torrance","neighborhood"
33.8379899123912,-118.162515414738,"N","Lakewood Mutual","neighborhood"
33.8501767765998,-118.191729357676,"N","Addams","neighborhood"
32.9788635730162,-117.133570227051,"Data Not Available","Rancho Peñasquitos","neighborhood"
32.80232777473,-117.235495645754,"Y","Pacific Beach","neighborhood"
32.7784488410674,-117.220797892349,"N","Mission Bay","neighborhood"
32.8423167953212,-117.276236961232,"N","Village of La Jolla","neighborhood"
33.1955136793982,-117.318319990685,"N","Mira Costa","neighborhood"
33.1837507074011,-117.333782270834,"Y","Fire Mountain","neighborhood"
33.1947485381612,-117.369598118103,"N","Townsite","neighborhood"
32.8453570230964,-117.270652972823,"Data Not Available","Village of La Jolla","neighborhood"
33.2105839227984,-117.371128457978,"N","East Side Capistrano","neighborhood"
32.8029883377774,-117.09386075998,"Data Not Available","Allied Gardens","neighborhood"
33.1771492584228,-117.366328803147,"Data Not Available","South Oceanside","neighborhood"
33.1733938301846,-117.355341185589,"N","South Oceanside","neighborhood"
33.1686929793256,-117.349734117168,"N","Carlsbad Village","neighborhood"
32.9298750690241,-117.118977827325,"N","Mira Mesa","neighborhood"
32.7619568387934,-117.250789306458,"N","Mission Beach","neighborhood"
33.0560388503904,-117.282372931681,"Y","Leucadia","neighborhood"
32.8336941831992,-116.945897131894,"N","Sky Ranch","neighborhood"
32.6742283727582,-116.939189759743,"N","Rolling Hills Ranch","neighborhood"
32.6544893668098,-116.956330578591,"N","Eastlake Business Center","neighborhood"
32.9174619876644,-117.186580794096,"N","Sorrento Valley","neighborhood"
32.6424154217527,-116.94972808877,"N","Eastlake Trails","neighborhood"
33.1256669866124,-117.078712510309,"Data Not Available","Central Escondido","neighborhood"
33.1677231774429,-117.067440639071,"N","Daley Ranch","neighborhood"
33.2163044043702,-117.280672675746,"N","Ivey Ranch / Rancho Del Oro","neighborhood"
33.2214513680655,-117.266613636327,"N","Peacock","neighborhood"
32.754285819891,-117.16620289992,"N","Hillcrest","neighborhood"
33.0345587745228,-116.859337429083,"N","Ramona","neighborhood"
32.6983669432241,-117.157382633404,"Y","Barrio Logan","neighborhood"
33.1315487653843,-117.023728623868,"N","San Pasqual Valley","neighborhood"
33.1421507588177,-117.031370626404,"N","East Grove","neighborhood"
32.702714844017,-117.148374639901,"Data Not Available","Barrio Logan","neighborhood"
32.7446546162093,-117.159073888285,"Y","Marston Hills","neighborhood"
32.762980640535,-117.115852071453,"Y","Normal Heights","neighborhood"
32.7619869607367,-117.111922505332,"Data Not Available","Normal Heights","neighborhood"
32.7448910800084,-117.172756359135,"N","Middletown","neighborhood"
33.0795329430874,-117.280170755503,"N","Leucadia","neighborhood"
32.7793044375554,-117.145698416362,"Y","Serra Mesa","neighborhood"
33.1033813756931,-117.109359920838,"N","Vineyard","neighborhood"
32.7701495285456,-117.182488481689,"N","Morena","neighborhood"
32.7513252740309,-117.230995847944,"Y","Point Loma Heights","neighborhood"
33.0343992869575,-116.876354356235,"Y","Ramona","neighborhood"
32.9476843224421,-117.255935777914,"N","Del Mar Heights","neighborhood"
33.2614065750738,-117.294355831817,"Data Not Available","North Valley","neighborhood"
33.2518916841761,-117.302420038305,"N","North Valley","neighborhood"
33.2260804323777,-117.334142541259,"N","San Luis Rey","neighborhood"
33.224745760993,-117.311765175672,"Data Not Available","San Luis Rey","neighborhood"
32.9290936364993,-117.08250849627,"N","Miramar Ranch North","neighborhood"
32.940067490292,-117.09448844699,"N","Sabre Springs","neighborhood"
32.9194911071079,-117.118057178355,"Data Not Available","Mira Mesa","neighborhood"
33.0055077132114,-117.085206295165,"N","Rancho Bernardo","neighborhood"
32.9746130291939,-117.140431179529,"N","Torrey Brook","neighborhood"
32.815592660741,-117.178268335957,"Y","Clairemont Mesa East","neighborhood"
32.7233349291304,-117.255951536455,"N","Sunset Cliffs","neighborhood"
32.7338722661019,-117.225488411846,"N","Roseville - Fleet Ridge","neighborhood"
33.1594950262004,-117.191903793534,"N","Santa Fe Hills","neighborhood"
32.7349344167399,-117.213739946288,"N","Liberty Station","neighborhood"
32.7104428409802,-117.159675625833,"Data Not Available","Asian Pacific Thematic Historic District","neighborhood"
32.7109823364479,-117.166219636778,"N","Marina","neighborhood"
32.7177811389882,-117.17013049426,"N","Core-Columbia","neighborhood"
32.7079291990925,-117.163275697598,"Y","Embarcadero","neighborhood"
32.7137207351308,-117.138117495848,"N","Golden Hill","neighborhood"
32.7151308199252,-117.130922393915,"Y","Golden Hill","neighborhood"
32.7537114667581,-117.144451795221,"Y","University Heights","neighborhood"
32.749367917529,-117.144425956898,"Data Not Available","North Park","neighborhood"
32.6893743749066,-117.11663028335,"Y","Southcrest","neighborhood"
33.1167463975703,-117.215805050407,"N","University Commons","neighborhood"
32.7462441494051,-117.204396769536,"Y","Midway District","neighborhood"
33.0712955967969,-117.253218036526,"N","Rancho Ponderosa","neighborhood"
33.1483877566863,-117.092582304094,"Y","North Broadway","neighborhood"
33.1729125359398,-117.093519761886,"N","North Broadway","neighborhood"
33.1903523396065,-117.087654503792,"N","North Ridge","neighborhood"
34.40234250698,-118.462585183143,"N","Newhall","neighborhood"
34.4060992156679,-118.458887912468,"Y","Canyon Country","neighborhood"
34.4227257937771,-118.550620988828,"N","Valencia","neighborhood"
34.4236055004915,-118.492406133265,"N","Canyon Country","neighborhood"
32.7179517139611,-117.131722495406,"Data Not Available","Golden Hill","neighborhood"
32.7059802451293,-117.069271486369,"N","Valencia Park","neighborhood"
32.7275719509238,-117.060663815499,"N","Encanto","neighborhood"
32.7562820190468,-117.062003195885,"Y","Rolando Village","neighborhood"
32.7748431828985,-117.062479823096,"Data Not Available","College East","neighborhood"
32.7408209544225,-117.085948561602,"N","Chollas Creek","neighborhood"
32.7477217002727,-117.09446062343,"Y","Fairmount Village","neighborhood"
33.0931106926044,-117.051210582625,"N","East Canyon","neighborhood"
32.68552152762,-117.058983418316,"Y","Paradise Hills","neighborhood"
32.6525814135673,-116.942757754091,"N","Eastlake Woods","neighborhood"
32.6391488145,-116.939689784016,"N","Eastlake Vistas","neighborhood"
32.5796802472499,-116.958808984461,"Data Not Available","Otay Mesa","neighborhood"
32.6535874695057,-116.968233700457,"N","Eastlake Business Park","neighborhood"
32.6371883428719,-116.962892269049,"N","Eastlake Greens","neighborhood"
33.1218588962532,-117.135893280183,"Y","West Ridge","neighborhood"
32.6163106486154,-117.009285073554,"N","Otay Ranch Village West","neighborhood"
32.6426263604356,-116.95993337824,"Data Not Available","Eastlake Greens","neighborhood"
33.0236391932466,-117.152615268307,"N","Black Mountain Ranch","neighborhood"
34.0297171264632,-118.495018610476,"Y","Wilshire Montana","neighborhood"
34.0357594746,-118.468021361083,"N","Mid-City","neighborhood"
33.2182954297603,-117.274832615957,"Y","Peacock","neighborhood"
32.7841807339673,-117.2526796734,"Y","Mission Beach","neighborhood"
33.018925187015,-116.808816861899,"N","San Diego Country Estates","neighborhood"
33.1190148305432,-117.04563118161,"N","East Valley","neighborhood"
33.2397799031363,-117.283680110496,"N","Guajome","neighborhood"
32.9406664346919,-117.250272005893,"Data Not Available","Del Mar Heights","neighborhood"
33.2820690480893,-117.273753338171,"N","Morro Hills","neighborhood"
33.2320802542235,-117.333048551273,"Y","San Luis Rey","neighborhood"
33.2242657236753,-117.30606120059,"Y","Canyon Vista","neighborhood"
32.9641610546031,-117.14487256233,"N","Penasquitos West","neighborhood"
33.0442638482563,-117.07578011207,"Data Not Available","Rancho Bernardo","neighborhood"
32.993323662705,-117.142243461287,"Data Not Available","Black Mountain Ranch","neighborhood"
32.8718356657408,-117.199981394846,"N","Nobel Research Park","neighborhood"
32.9625210008223,-117.142330418837,"N","Crestmont","neighborhood"
32.9684467762782,-117.208247127095,"N","North City","neighborhood"
33.1848235963733,-117.302631404335,"Y","Mira Costa","neighborhood"
32.874823324184,-117.215868677085,"Data Not Available","University City","neighborhood"
33.192810664603,-117.366131317909,"Y","Townsite","neighborhood"
33.20462717753,-117.369915726242,"Y","East Side Capistrano","neighborhood"
33.1847316317823,-117.344360085854,"N","Fire Mountain","neighborhood"
32.7920133913393,-117.109547869437,"N","Grantville","neighborhood"
33.1701686417061,-117.362366350721,"Y","South Oceanside","neighborhood"
34.1766563838597,-118.294487609461,"Y","Grandview","neighborhood"
32.667236270682,-116.978339062865,"N","San Miguel Ranch","neighborhood"
32.7968170078849,-117.192862848871,"Y","Bay Park","neighborhood"
33.8366588608044,-117.98260592053,"N","Northwest Anaheim","neighborhood"
33.833014512941,-117.982552800649,"Y","Northwest Anaheim","neighborhood"
36.7659239424603,-119.681347985688,"N","McLane","neighborhood"
36.8083924102026,-119.914203528128,"N","West Side","neighborhood"
36.9072184422623,-119.762767908571,"N","North Growth Area","neighborhood"
36.7249560904577,-119.822173073297,"Y","Edison","neighborhood"
36.7043933445404,-119.634629813249,"N","Southeast Growth Area","neighborhood"
36.7486519325923,-119.794419638715,"Y","Lowell","neighborhood"
35.4162828362815,-119.019367986154,"Data Not Available","Mobile Town","neighborhood"
35.430372035298,-119.034468162124,"Y","North Country Meadows","neighborhood"
35.419874638017,-119.064743718464,"Y","Olive Drive area","neighborhood"
35.4454420670858,-119.032731675955,"Y","Highland Knolls","neighborhood"
35.4232817045956,-119.035100301825,"N","North Country Meadows","neighborhood"
35.416087444993,-119.13663011362,"N","Avalon","neighborhood"
35.3689127150422,-119.216614096978,"N","Rosedale","neighborhood"
35.3585965582502,-119.085812366725,"N","Quailwood","neighborhood"
35.3943233315495,-119.012414348436,"Y","Homaker Park","neighborhood"
35.3957607072869,-118.976578049184,"Y","College Heights","neighborhood"
35.4238007734669,-119.113770402375,"N","Hampton Woods","neighborhood"
35.3954435859321,-118.989599530701,"Data Not Available","La Cresta/Alta Vista","neighborhood"
35.3798760155601,-119.14997697462,"N","Masterpiece Estates","neighborhood"
35.3798760202374,-119.158862296965,"Y","Masterpiece Estates","neighborhood"
35.4164992575912,-119.10105145025,"N","Eagle Ranch","neighborhood"
35.40167286275,-119.11443742636,"N","Westlakes","neighborhood"
35.4020140881176,-119.156878972117,"N","Belsera","neighborhood"
35.4154865847074,-119.123252657118,"N","Madison Grove","neighborhood"
35.3991046686129,-119.088371249092,"N","Fruitvale","neighborhood"
35.4088437857756,-119.123367274379,"N","Crystal Ranch","neighborhood"
35.3945834591591,-119.132038494881,"N","Emerald Estates","neighborhood"
35.4088409457335,-119.141103273915,"N","Fox Run","neighborhood"
35.4051511923411,-118.89161984845,"N","City in the Hills","neighborhood"
35.3433836043686,-118.945347551955,"N","Tyner Homes","neighborhood"
35.3459250606908,-118.99861776636,"Y","Casa Loma","neighborhood"
35.3140495481577,-119.007478858467,"Y","Rexland Acres","neighborhood"
35.3195925994625,-119.123439447631,"N","Tevis Ranch","neighborhood"
35.2997960169259,-119.101033158561,"Data Not Available","Campus Park","neighborhood"
35.3572602003262,-118.939434790771,"Y","Oakridge","neighborhood"
36.8628403832005,-119.795173106022,"N","The Bluffs","neighborhood"
35.3496896803071,-119.022440491843,"Y","Benton Park","neighborhood"
35.3079691234577,-119.083928524001,"Y","Silver Creek","neighborhood"
35.3059325524796,-119.085187025626,"N","Silver Creek","neighborhood"
35.2881880150021,-119.033821242557,"N","Stone Meadows","neighborhood"
35.2733065042681,-119.034644710709,"N","Castle Ranch","neighborhood"
35.2850527223547,-119.043396119527,"N","Stonegate","neighborhood"
35.3071132803424,-119.101060360164,"N","Campus Park","neighborhood"
35.2705178536766,-119.013547067756,"Y","Greenfield","neighborhood"
35.3675537254938,-118.963406283187,"Data Not Available","Oakridge","neighborhood"
35.3779954374521,-118.941374620673,"Y","Bakersfield Country Club","neighborhood"
35.4141771445518,-118.851674517331,"N","Tuscany","neighborhood"
35.3584841408486,-119.138308708366,"Y","Villages of Brimhall/Brimhall Classics","neighborhood"
35.4080517401523,-118.850068324944,"N","Rio Bravo","neighborhood"
35.3578823144864,-119.068892817294,"N","Park Stockdale","neighborhood"
35.3707919847641,-119.169955160484,"N","Shiloh Estates","neighborhood"
35.3216637155442,-119.064736886653,"Y","Spice Tract","neighborhood"
35.3035234976419,-119.114331352886,"N","Terra Vista","neighborhood"
35.4053500695167,-119.104857531638,"N","San Trope","neighborhood"
35.3585613381797,-119.055622213456,"Y","West Park Community","neighborhood"
35.333553756224,-119.067653917015,"Y","Sagepointe","neighborhood"
35.3426419053753,-119.119966779778,"N","Seven Oaks","neighborhood"
35.3343156583145,-119.101476085676,"N","Haggin Oaks","neighborhood"
35.3829939420286,-118.983153354543,"Y","East Bakersfield","neighborhood"
35.3871036381246,-119.118894138458,"N","Polo Grounds","neighborhood"
35.394350415508,-119.016515695964,"Data Not Available","Homaker Park","neighborhood"
35.3907445122716,-119.176613796352,"N","Redwood Estates","neighborhood"
35.6151743073837,-117.696721207342,"N","Ridgecrest Heights","neighborhood"
35.6006338205846,-117.696967500184,"Y","Ridgecrest Heights","neighborhood"
35.3580327728328,-119.007244268862,"Y","Oleander/Sunset","neighborhood"
35.335821732883,-119.018210679859,"Y","Southgate","neighborhood"
35.3653714856726,-119.136860466747,"N","Villages of Brimhall/Brimhall Classics","neighborhood"
35.2816754283589,-119.119052589852,"N","Park Avenue","neighborhood"
35.3656110727847,-119.120723756241,"N","Fairway Oaks","neighborhood"
35.3870314569617,-118.999428150086,"Y","Baker Street","neighborhood"
35.3573843934457,-119.125442781589,"Data Not Available","Brighton","neighborhood"
35.4233431324542,-119.08782442918,"N","Olive Drive area","neighborhood"
35.2998445511238,-119.123419963373,"N","Artisan","neighborhood"
35.334409951757,-119.136606299222,"N","Seven Oaks at Grand Island","neighborhood"
35.3571763612449,-119.153995862298,"N","Stockdale West","neighborhood"
35.3576650151319,-119.089952430585,"Y","Quailwood","neighborhood"
35.3619388087571,-119.048855058877,"N","West Park Community","neighborhood"
35.32211576988,-119.097335416269,"N","The Oaks","neighborhood"
35.4011273149232,-118.998014471641,"N","La Cresta/Alta Vista","neighborhood"
35.4030131302012,-118.989583644544,"Y","La Cresta/Alta Vista","neighborhood"
35.3959899383052,-119.086834105472,"Y","Fruitvale","neighborhood"
37.2959161032198,-121.846972069228,"Y","Gardens - Villa Montery","neighborhood"
37.2804109961771,-121.834109756772,"Y","Seven Trees and Lairon","neighborhood"
37.2388347594205,-121.81083113734,"N","Oak Ridge","neighborhood"
37.3861033152774,-122.046407812882,"N","Sunnyvale West","neighborhood"
37.2429058806422,-121.797092439801,"N","Village Oaks","neighborhood"
37.267384332681,-121.79942239449,"N","Coyote - Fontanelle","neighborhood"
37.3722514464128,-121.865207073748,"N","Commodore","neighborhood"
37.3471191777098,-121.826718545538,"N","Cassell and Foxdale","neighborhood"
37.3270822475213,-121.758506415557,"N","Evergreen Valley High","neighborhood"
37.3215090652507,-121.774240743944,"N","Murillo","neighborhood"
37.3035656119103,-122.00991175952,"N","Joaquin Miller","neighborhood"
37.402979694786,-122.017560444379,"N","Morse Park","neighborhood"
37.3084548646853,-121.92975844392,"Y","Del Mar","neighborhood"
37.3589222020747,-122.01884725657,"N","Gavello Glen","neighborhood"
37.3414640466514,-122.010835691409,"N","Birdland Neighbors","neighborhood"
37.3001868467917,-121.952212167178,"N","Cadillac Winchester","neighborhood"
37.3626340130886,-122.015946508342,"N","Braly Corners","neighborhood"
37.2746294647852,-121.835447524681,"N","The Woods","neighborhood"
37.3984368383735,-121.955963636571,"N","Rivermark","neighborhood"
37.2754339752369,-121.818457288165,"Data Not Available","Riverview","neighborhood"
37.2274338262036,-121.796233577832,"N","Parma","neighborhood"
37.2772792154636,-121.758611627501,"N","Silver Creek Country Club","neighborhood"
37.3830782116491,-121.851064883369,"N","Penitencia","neighborhood"
37.3795124271691,-121.855194714296,"Y","Gilchrist","neighborhood"
37.3683092383494,-121.874632441258,"Y","Berryessa Flea Market-BART","neighborhood"
37.391302421678,-122.076832743611,"N","Old Mountain View","neighborhood"
37.3827698565516,-121.831381472909,"N","Golf and Gridley","neighborhood"
37.232900254348,-121.758381930497,"N","Metcalf","neighborhood"
37.2588501281156,-121.801796723332,"Y","Roundtable","neighborhood"
37.270457796077,-121.807630308003,"N","Stripe Elementary and Great Oaks","neighborhood"
37.2964105978645,-121.84277948887,"N","Umbarger","neighborhood"
37.3888360634664,-121.835574352586,"N","Toyon","neighborhood"
37.3753396438034,-121.868107301252,"N","Commercial","neighborhood"
37.3508572505458,-121.831723969939,"N","Capitol - Goss","neighborhood"
37.3546910160498,-121.814920109958,"N","Mt. Pleasant North","neighborhood"
37.2715710938318,-121.885455146678,"N","Valley View Reed","neighborhood"
37.2997022802671,-121.927224456705,"N","Southwest","neighborhood"
37.3337915361249,-121.919280180663,"N","Alameda","neighborhood"
37.356670232169,-122.011007390018,"N","Ponderosa Park","neighborhood"
37.3261310611608,-121.87678182191,"N","Spartan Keyes","neighborhood"
37.3324448228345,-121.870428935252,"Y","Naglee","neighborhood"
37.3301771984443,-121.875267745238,"Y","South University","neighborhood"
37.3291304479668,-121.878886721205,"Data Not Available","South University","neighborhood"
37.3280888877035,-121.882491340568,"Y","Downtown and SOFA","neighborhood"
37.3364313032741,-121.864510976799,"N","Olinder-McKinley","neighborhood"
37.4424443821604,-122.15793078976,"N","University South","neighborhood"
37.3397105368616,-121.872646353629,"N","Naglee","neighborhood"
37.4499812316805,-122.165430319979,"Data Not Available","Downtown North","neighborhood"
37.3313750630613,-121.884923879501,"N","Downtown and SOFA","neighborhood"
37.33085249055,-121.892190113067,"N","Ballbach and SOFA","neighborhood"
37.2971468382684,-121.957617662123,"N","Cadillac West","neighborhood"
37.2991064875217,-121.956549695887,"N","Lexington Maria","neighborhood"
37.2981435349965,-121.947051077157,"Y","Castlemont","neighborhood"
37.3027359678867,-121.94787795868,"N","Castlemont","neighborhood"
37.3126592180545,-121.944351099965,"N","Monroe","neighborhood"
37.3199086148852,-121.944658954554,"N","The Villas","neighborhood"
37.3212279800293,-121.949021071397,"N","Valley Fair","neighborhood"
37.3982688564387,-121.905155784002,"N","Orchard","neighborhood"
37.3134057703381,-121.951722123136,"N","Winchester Lynnhaven","neighborhood"
37.3193938330938,-121.976984052314,"N","Loma Linda","neighborhood"
37.3757716436536,-121.879843525238,"N","Notting Hill - Royal Crest","neighborhood"
37.3837743261061,-121.888431941193,"N","Carmine - Parkmont","neighborhood"
37.2982573718708,-121.994172140511,"N","English Estates","neighborhood"
37.3264445232289,-121.835730939542,"N","Lanai - Cunningham","neighborhood"
37.2806405019373,-121.830123827892,"N","Seven Trees and Lairon","neighborhood"
37.3811576404422,-122.030176113977,"N","Heritage District","neighborhood"
37.332441956856,-121.953102261656,"N","Winchester","neighborhood"
37.2907192558374,-121.844152579639,"Y","Dahl","neighborhood"
37.2868995039946,-121.839182087813,"N","Seven Trees","neighborhood"
37.2773885051683,-121.860496805372,"N","Narvaez","neighborhood"
37.2865564192265,-121.856268094225,"N","Communications Hill","neighborhood"
37.3228116828598,-121.876011382169,"Y","Virginia and Martha","neighborhood"
37.2809492226353,-121.875984214319,"N","Farm and Rubino Dr","neighborhood"
37.2799523656406,-121.868625391803,"N","Summer Creek","neighborhood"
37.3112927268844,-121.873900655269,"N","Alma","neighborhood"
37.2697789517467,-121.835769665208,"N","Berry Park","neighborhood"
37.3881297848735,-122.020295013422,"N","Snail","neighborhood"
37.3909853032567,-122.009905073447,"N","San Miguel","neighborhood"
37.3430520611163,-122.033306072577,"Data Not Available","Sunnyvale West","neighborhood"
37.3477116033281,-122.037231322564,"N","Nimitz","neighborhood"
37.252033982099,-121.944376417062,"N","Good Samaritan","neighborhood"
37.2584101584205,-121.935573258878,"N","Cambrian Park","neighborhood"
37.2025949699033,-121.852452918795,"N","Glen Crest","neighborhood"
37.2157852286525,-121.895041850429,"N","Almaden Guadalupe Park","neighborhood"
37.3745955594973,-122.065623904424,"N","Cuernavaca","neighborhood"
37.2595884167717,-121.863983711993,"N","Tatra","neighborhood"
37.411350041317,-122.101466341678,"N","Monta Loma","neighborhood"
37.2855267013873,-121.879071489203,"N","Canoas Garden","neighborhood"
37.2873603664664,-121.873415643865,"Data Not Available","Canoas Garden and Almaden","neighborhood"
37.3083669378908,-121.878573056235,"Y","Alma","neighborhood"
37.2626263729369,-121.861669447597,"N","Branham","neighborhood"
37.3058104501582,-121.847989876541,"Y","Brenning","neighborhood"
37.3619867985235,-122.046284975857,"N","Cumberland South","neighborhood"
37.2546343669579,-121.940287973735,"N","Houge Parker","neighborhood"
37.2609809233389,-121.941944793756,"N","Farnham","neighborhood"
37.1986946209241,-121.841847867897,"N","Almaden Springs","neighborhood"
37.1856409343652,-121.850941127174,"N","Quicksilver","neighborhood"
37.2125747828023,-121.855894039276,"N","Glenview Serenity","neighborhood"
37.4094797409657,-121.937961129254,"N","Tasman and Zanker","neighborhood"
37.3008139112203,-121.850358409938,"N","Fairground","neighborhood"
37.2826366895554,-121.837470324912,"N","Rancho","neighborhood"
37.2437882327699,-121.881032355377,"Data Not Available","Hoffman Via Monte","neighborhood"
37.3692681367471,-121.920441172156,"N","Rosemary","neighborhood"
37.3609461334423,-121.912752784559,"N","Rosemary Gardens","neighborhood"
37.3847220345105,-121.920216959159,"N","Trimble Business Area","neighborhood"
37.3042387370167,-121.918504543857,"N","Stokes","neighborhood"
37.3138168607735,-121.908524858666,"N","North Willow Glen","neighborhood"
37.3053943637576,-121.927312351786,"N","Fruitdale and Sherman Oaks","neighborhood"
37.3126888684113,-121.919574680171,"N","Rose Glen","neighborhood"
37.3138525625935,-121.927073625171,"Y","Rose Glen","neighborhood"
37.414589100988,-121.959705837161,"N","Renaissance","neighborhood"
37.3181773193896,-121.909017859445,"N","O'Connor Park","neighborhood"
37.3236858662076,-121.907832521688,"N","Sunol-Midtown","neighborhood"
37.4216750998975,-122.151496795137,"N","College Terrace","neighborhood"
37.4271589198027,-122.144224750413,"N","Evergreen Park","neighborhood"
37.4332742323626,-122.152174150154,"N","Southgate","neighborhood"
37.2915337104119,-121.836448729033,"Data Not Available","Hillsdale","neighborhood"
37.2733713815634,-121.824071585578,"N","San Ramon","neighborhood"
37.2517006710875,-121.759033409642,"N","Shady Oaks and Basking Ridge","neighborhood"
37.368960282754,-121.82078658849,"N","East Hills and White","neighborhood"
37.3148665071448,-121.801297181123,"N","Everydale - Neimen","neighborhood"
37.3611635768454,-121.844128157575,"Y","Luz","neighborhood"
37.2755119373846,-121.809615725224,"N","Coyote and Senter","neighborhood"
37.2945729464208,-121.839086591423,"Y","Hillsdale","neighborhood"
38.7872772349219,-121.272953670536,"N","Stanford","neighborhood"
34.2161367240987,-119.163564356154,"N","West Village","neighborhood"
34.2227960079107,-119.164921081706,"N","Rio Lindo","neighborhood"
34.1585854405024,-119.219790975651,"N","Silver Strand","neighborhood"
34.1587496449079,-119.222991828145,"Y","Hollywood","neighborhood"
34.1963848350502,-119.184587153625,"N","Hobson Park East","neighborhood"
34.1927790000669,-119.21717640054,"Data Not Available","Sea View Estates","neighborhood"
34.1876148750707,-119.216213504742,"N","Via Marina","neighborhood"
34.1946364199214,-119.212964205448,"N","Sea View Estates","neighborhood"
34.1946697573947,-119.203022697577,"N","Sea Air","neighborhood"
34.1882113853995,-119.199373103058,"N","Marina West","neighborhood"
34.1926685345341,-119.192003140802,"N","Hobson Park West","neighborhood"
34.214026377744,-119.183363147581,"N","Carriage Square","neighborhood"
34.1964931824057,-119.191379548338,"Y","Hobson Park West","neighborhood"
34.1912009798211,-119.18526279749,"Y","Hobson Park East","neighborhood"
34.1843912441925,-119.18512141162,"Y","Kamala Park","neighborhood"
34.1835628349253,-119.19176754081,"N","Bartolo Square North","neighborhood"
34.2313709894279,-119.168074595302,"Y","El Rio East","neighborhood"
34.1812474473655,-119.231696248073,"N","Channel Islands","neighborhood"
34.1826232200378,-119.174761796541,"Y","Cal-Gisler","neighborhood"
34.1493779720272,-119.185199526943,"Y","South Winds","neighborhood"
34.2119077313525,-119.186498419393,"Y","Carriage Square","neighborhood"
34.1497757105313,-119.175901170132,"N","Cypress Gardens","neighborhood"
34.2808077563104,-119.157272062513,"N","West Saticoy","neighborhood"
34.2292446777646,-119.208290806547,"N","Golf Course","neighborhood"
34.213122539658,-119.193398435992,"N","Fremont North","neighborhood"
34.237404166683,-119.156950259247,"N","El Rio East","neighborhood"
34.1940136129392,-119.243080392174,"N","Oxnard Shores","neighborhood"
34.1783286034358,-119.188521923016,"N","Bartolo Square South","neighborhood"
34.2073761606943,-119.170750091751,"Data Not Available","La Colonia","neighborhood"
34.2229774447604,-119.197768629398,"N","Windsor North River Ridge","neighborhood"
38.7894442833761,-121.2928585166,"Data Not Available","Highland Reserve","neighborhood"
38.7869818710411,-121.373526707501,"N","Westpark","neighborhood"
38.7536830794569,-121.344613953374,"N","Junction West","neighborhood"
37.9096685461633,-122.073930892995,"N","Overlook","neighborhood"
37.9504711060737,-121.686792332503,"N","Penrose","neighborhood"
37.9337413927403,-122.345936085443,"N","Metro Richmore Village","neighborhood"
37.9297073663359,-121.742751952206,"N","Brentwood Lake","neighborhood"
37.9333145706187,-121.730110361507,"N","Apple Hill Estates","neighborhood"
38.00602982173,-122.114104917929,"N","Mountain View","neighborhood"
37.9533229859045,-121.738623640367,"N","Brighton Station","neighborhood"
37.9357743471095,-121.684232547364,"N","Yamanaka","neighborhood"
37.948019322564,-122.054449407927,"N","Monument Corridor","neighborhood"
37.941766221261,-121.731946519344,"N","Sunrise","neighborhood"
38.0206386241176,-122.267927073795,"N","Victoria by the Bay","neighborhood"
37.9628032296715,-122.03849695103,"Y","Monument Corridor","neighborhood"
37.8758297109782,-122.076382734185,"Y","Rossmoor","neighborhood"
37.8760168060601,-122.085907930883,"N","Rossmoor","neighborhood"
37.9474203571087,-121.703370688302,"N","Isola Heights","neighborhood"
37.9270359438617,-121.687891484892,"N","Garin Ranch","neighborhood"
37.9544236947395,-121.72891545191,"N","Amber Park","neighborhood"
37.9632581395338,-121.7194429535,"N","Rose Garden","neighborhood"
36.5733955156339,-121.955805660067,"N","Pebble Beach","neighborhood"
36.6030707747107,-121.951530671058,"N","Country Club West","neighborhood"
36.5855647830311,-121.879870058778,"N","La Mesa Village","neighborhood"
36.6567219842155,-121.739153433309,"Data Not Available","East Garrison","neighborhood"
33.8354080895429,-117.878279143104,"N","Southeast Anaheim","neighborhood"
33.8124209995827,-117.937063797996,"Y","Hermosa Village","neighborhood"
33.8401119736932,-117.926212349508,"N","Downtown Anaheim","neighborhood"
33.8407774865374,-117.944476255969,"Data Not Available","Northwest Anaheim","neighborhood"
33.6550624411628,-117.930050591271,"Y","Westside Costa Mesa","neighborhood"
33.6708612710714,-117.924177264498,"N","Mesa Verde","neighborhood"
33.6571088697327,-117.92370283121,"N","Westside Costa Mesa","neighborhood"
33.6299235414955,-117.83587384073,"Data Not Available","Turtle Ridge","neighborhood"
33.6299583291552,-117.824933697943,"N","Turtle Ridge","neighborhood"
33.6398928843458,-117.810996972237,"N","Turtle Rock","neighborhood"
38.5859686611443,-121.484934424875,"Y","Mansion Flats","neighborhood"
38.5826860500501,-121.486358824242,"N","Mansion Flats","neighborhood"
38.5809417132923,-121.480454269146,"N","Boulevard Park","neighborhood"
38.5841275021431,-121.478775461875,"N","New Era Park","neighborhood"
34.045661533619,-118.297001745524,"Y","Pico Union","neighborhood"
33.9839390464562,-117.500744021057,"N","Mira Loma","neighborhood"
34.0094998129829,-117.474512449358,"Y","Glen Avon","neighborhood"
34.0045875759234,-117.485992122689,"N","Glen Avon","neighborhood"
38.6394175694302,-121.39395244414,"Y","Del Paso Park","neighborhood"
37.9470794253936,-122.353823898995,"Y","Belding Woods","neighborhood"
33.1972846025178,-117.363263288918,"Y","Loma Alta","neighborhood"
33.2049779912754,-117.359207597368,"N","Loma Alta","neighborhood"
34.0350002481042,-118.303027478583,"Y","West Adams","neighborhood"
39.7287051549238,-121.817154758124,"Y","Chapmantown","neighborhood"
33.2180455856166,-117.328183539047,"Y","Oceana","neighborhood"
34.0271872942705,-118.302509412014,"N","West Adams","neighborhood"
34.0550308439418,-118.337574219834,"N","Mid-Wilshire","neighborhood"
34.0566210124081,-118.341489849546,"N","Miracle Mile","neighborhood"
33.9497262540587,-118.302960005943,"N","Gramercy Park","neighborhood"
33.948485317562,-118.314112163138,"Y","Gramercy Park","neighborhood"
33.9660405116275,-118.289339770524,"Y","South Figueroa Corridor","neighborhood"
33.9558218904816,-118.306018663027,"Data Not Available","Gramercy Park","neighborhood"
34.0043584466229,-118.271180602176,"N","Historic South Central","neighborhood"
34.0014202705849,-118.254308985018,"Y","Central Alameda","neighborhood"
33.9461474834567,-118.24767652564,"Data Not Available","Watts","neighborhood"
34.0754723398554,-118.474470465661,"N","Brentwood","neighborhood"
34.1527012967031,-119.170526979629,"Y","Cypress Gardens","neighborhood"
34.1583529093313,-119.175375205778,"N","Pleasant Valley Estates","neighborhood"
36.7621330798192,-119.811995750275,"N","Tower District","neighborhood"
36.7603058149371,-119.799350135584,"Y","Tower District","neighborhood"
38.6580324754556,-121.368647131538,"Y","Landmarks","neighborhood"
33.9979207963751,-118.267483254373,"Y","South Park","neighborhood"
34.0155408843321,-118.315183461504,"N","Leimert Park","neighborhood"
37.643960066845,-122.47452414422,"N","Westview","neighborhood"
34.0086522918207,-118.290777220008,"Y","Vermont Harbor","neighborhood"
33.9984882954232,-118.298859955336,"N","Vermont Harbor","neighborhood"
37.9935658182603,-121.322458599063,"N","Lakeview","neighborhood"
38.8868793455671,-121.297875700143,"Y","Downtown Lincoln","neighborhood"
34.0057158106477,-118.355835797676,"N","Baldwin Hills","neighborhood"
33.9926056439561,-118.320098745255,"Y","Park Mesa Heights","neighborhood"
33.9871560332597,-118.335361904531,"Data Not Available","Park Mesa Heights","neighborhood"
33.986537931611,-118.348536945166,"N","View Heights","neighborhood"
36.7796873756833,-119.716675590643,"Y","McLane","neighborhood"
36.8038929387193,-119.804008658759,"Data Not Available","Fig Garden","neighborhood"
33.9931731724314,-117.514627101774,"Y","Mira Loma","neighborhood"
34.1042062688217,-117.344935014003,"Y","Terrace","neighborhood"
37.9803180683015,-122.311076793811,"N","Hilltop Green","neighborhood"
37.9721760296145,-122.337816882607,"Y","Fairmede - Hilltop","neighborhood"
33.9809867849306,-118.30771759849,"Data Not Available","Vermont-Slauson","neighborhood"
33.9805683447012,-118.289320578565,"Y","Vermont-Slauson","neighborhood"
33.9409317935453,-117.479405443499,"Y","La Sierra Acres","neighborhood"
33.9741889258251,-118.388234787233,"N","Westchester","neighborhood"
34.1985127408848,-118.219550119707,"N","San Rafael Hills","neighborhood"
34.193273621145,-118.22329609316,"N","Montecito Park","neighborhood"
34.1855510763924,-118.224246960345,"Data Not Available","Verdugo Woodlands","neighborhood"
34.1786302523115,-118.215797838348,"Data Not Available","San Rafael Hills","neighborhood"
38.6143173666337,-121.471120718545,"Y","Gardenland","neighborhood"
33.6213254680741,-117.87844737392,"N","Newport Center","neighborhood"
33.9662230709403,-118.411561478753,"Data Not Available","Westchester","neighborhood"
33.9661409101426,-118.433910344373,"N","Playa Del Rey","neighborhood"
34.1493738227761,-117.299327274988,"Y","Shandin Hills","neighborhood"
34.0768998889451,-117.291263575532,"Y","Show Place","neighborhood"
38.7434603754795,-121.286871293673,"Y","Cherry Glen","neighborhood"
33.9159334066099,-117.481874770912,"Y","La Sierra","neighborhood"
33.9200625267971,-118.289296159565,"Y","Harbor Gateway North","neighborhood"
33.9201273540938,-118.284526719815,"N","Harbor Gateway North","neighborhood"
34.0744269481732,-118.427983092132,"Data Not Available","Holmby Hills","neighborhood"
33.9169055829026,-117.508469465867,"N","La Sierra","neighborhood"
33.9588369810639,-117.340908371664,"N","Canyon Crest","neighborhood"
38.7337431301876,-121.276400432468,"Y","Cirby Side","neighborhood"
38.7320405756671,-121.263877139266,"N","Meadow Oaks","neighborhood"
34.0720272039877,-118.459338464833,"N","Westwood","neighborhood"
33.933888345584,-117.498598458038,"N","La Sierra Hills","neighborhood"
33.9510266704038,-117.464893168414,"N","Arlanza","neighborhood"
38.7249286140867,-121.280381005279,"N","Cirby Side","neighborhood"
38.724252174299,-121.266861104618,"N","Cirby Ranch","neighborhood"
38.7261415997401,-121.244098613778,"N","South Cirby","neighborhood"
38.7488667718216,-121.273871666362,"Y","Folsom Road","neighborhood"
33.9312148045188,-117.473964882552,"N","La Sierra Acres","neighborhood"
33.9858852148788,-117.32238112168,"N","University","neighborhood"
38.2467559176558,-121.297579719555,"Y","Southdale Terrace","neighborhood"
34.040763191627,-118.40100230589,"N","Monte Mar Vista","neighborhood"
38.7343792537201,-121.298003887634,"Y","Theiles Manor","neighborhood"
38.7371840933174,-121.321225521066,"N","Hilltop Circle","neighborhood"
38.7458284642156,-121.295180349471,"N","Roseville Heights","neighborhood"
33.9351387089108,-117.45700231873,"Y","Arlanza","neighborhood"
33.9010059340509,-117.461577014875,"N","La Sierra South","neighborhood"
34.0321621935482,-118.406428181068,"Y","Cheviot Hills","neighborhood"
34.0420610458038,-118.421032709588,"Data Not Available","Rancho Park","neighborhood"
34.0437844395848,-118.388836608315,"N","Beverlywood","neighborhood"
33.7450967456688,-118.284149559571,"Y","Central San Pedro","neighborhood"
33.7555232721123,-118.298857946701,"Data Not Available","Northwest San Pedro","neighborhood"
38.7552504584385,-121.282958960405,"Y","Sierra Vista","neighborhood"
34.0373622630289,-118.3826066818,"N","Reynier Village","neighborhood"
34.0344708938118,-118.375205351838,"N","Art District","neighborhood"
34.03838252868,-118.368599350159,"N","Mid City","neighborhood"
33.7504468158075,-118.294284589154,"Y","Northwest San Pedro","neighborhood"
36.7483671817662,-119.824356558314,"Y","West Side","neighborhood"
38.7555823030672,-121.306419383879,"N","Kaseberg - Kingswood","neighborhood"
34.0324334704821,-118.438197548318,"N","Westdale","neighborhood"
34.0037189747226,-118.437188656045,"Data Not Available","Mar Vista","neighborhood"
37.8151775029814,-122.260954119607,"Y","Oakland Ave - Harrison St","neighborhood"
37.8191938433306,-122.258825683347,"N","Oakland Ave - Harrison St","neighborhood"
37.8221957844417,-122.257005338408,"Y","Piedmont Avenue","neighborhood"
34.0033430483539,-118.429046393215,"Y","Mar Vista","neighborhood"
33.9942771655003,-118.466096610448,"Data Not Available","Oakwood","neighborhood"
33.9974874812465,-118.474187658524,"Y","Oakwood","neighborhood"
33.9948767878,-118.471752773558,"N","Oakwood","neighborhood"
34.2276111843416,-118.250872648406,"Y","Crescenta Highlands","neighborhood"
34.2291052195997,-118.255233975947,"N","Crescenta Highlands","neighborhood"
37.8098460199845,-122.250136760769,"N","Cleveland Heights","neighborhood"
37.7926057444894,-122.239000697551,"Y","Rancho San Antonio","neighborhood"
37.7829085718803,-122.225140877912,"Y","Hawthorne","neighborhood"
34.1813278257846,-118.232343153508,"N","Verdugo Woodlands","neighborhood"
34.2109140084431,-118.260266149769,"N","Verdugo Mountains","neighborhood"
34.4399134167925,-119.696044370643,"N","Riviera","neighborhood"
34.4341974230867,-119.704235863969,"N","Lower Riviera","neighborhood"
34.1632438277749,-118.237752622002,"N","Rossmoyne","neighborhood"
38.5450084132459,-121.719383175162,"N","Rose Creek","neighborhood"
34.177295015213,-118.198862240894,"N","Chevy Chase","neighborhood"
34.1545120458452,-118.197276317743,"N","Glenoaks Canyon","neighborhood"
38.5547559225802,-121.74382007288,"N","Central Davis","neighborhood"
38.5638723080378,-121.75519402899,"Y","Covell Park","neighborhood"
38.5659422215706,-121.761364091643,"N","Senda Nueva","neighborhood"
38.5483120067114,-121.736547760744,"Y","Old East Davis","neighborhood"
38.5493679878171,-121.730641948081,"Y","Davis Manor","neighborhood"
34.2163020345114,-118.623773755405,"N","West Hills","neighborhood"
32.7652618243986,-117.064554977838,"Y","College East","neighborhood"
32.7733554735316,-117.052327206113,"N","College East","neighborhood"
32.7223222441516,-117.070923600153,"N","Emerald Hills","neighborhood"
32.7173782720608,-117.079831710287,"Y","Emerald Hills","neighborhood"
32.7002799018072,-117.078953168613,"Y","Valencia Park","neighborhood"
32.706577418451,-117.036297301178,"N","Skyline","neighborhood"
32.7121096130955,-117.030588183534,"N","Jamacha-Lomita","neighborhood"
32.6910320423757,-117.050919352926,"N","Bay Terraces","neighborhood"
37.2470483317235,-121.917790066216,"N","De Voss - Leigh","neighborhood"
37.2793844677442,-121.733737150623,"N","The Villages","neighborhood"
37.3098131811576,-121.974310816534,"N","Blackford","neighborhood"
37.1762510359651,-121.725827409503,"N","Coyote Creek","neighborhood"
34.3245338680285,-118.447443521959,"N","Sylmar","neighborhood"
34.2555510014568,-118.477804881997,"Y","North Hills West","neighborhood"
34.2607671074363,-118.587737631673,"N","Chatsworth","neighborhood"
34.1702866859843,-118.402719779409,"Y","Valley Village","neighborhood"
34.0735239415613,-118.289657718716,"Y","Rampart Village","neighborhood"
40.5650471809785,-122.366833333594,"Y","Bechelli","neighborhood"
40.5504284334901,-122.364427653895,"Y","Greens Way Terrace","neighborhood"
34.2314169506886,-118.595276225075,"Y","Canoga Park","neighborhood"
32.6984315648219,-117.030004439924,"Y","Bay Terraces","neighborhood"
32.6833608650562,-117.057413962498,"N","Paradise Hills","neighborhood"
34.1772170076753,-119.157381233801,"N","Lemonwood Eastmont","neighborhood"
34.1703571995725,-119.175258800135,"Y","Blackstock North","neighborhood"
34.2319225400764,-118.510381379677,"N","Sherwood Forest","neighborhood"
34.230424610633,-118.421086965358,"N","Panorama City","neighborhood"
34.2428733578741,-118.480637256649,"N","North Hills West","neighborhood"
36.0717645532582,-119.077822390968,"Y","West Porterville","neighborhood"
32.7223676150601,-117.059810478336,"Y","Encanto","neighborhood"
34.2585777684089,-118.545965158926,"N","Porter Ranch","neighborhood"
34.1624150289362,-118.368074387016,"Y","NoHo Arts District","neighborhood"
34.1569554145349,-118.375489450492,"N","West Toluca Lake","neighborhood"
32.7075537240173,-117.027329058947,"Data Not Available","Jamacha-Lomita","neighborhood"
32.7004754019729,-117.020363415058,"Y","Skyline","neighborhood"
32.7458952920555,-117.088289047064,"Y","Chollas Creek","neighborhood"
32.7425233983641,-117.090708547507,"Y","Islenair","neighborhood"
32.7757602851516,-117.088278161521,"N","College West","neighborhood"
37.712598285906,-122.421072450684,"Y","Sunnydale","neighborhood"
37.8009414810911,-122.414778390266,"N","Russian Hill","neighborhood"
32.7887222046419,-117.060610332858,"N","Del Cerro","neighborhood"
32.7995251635835,-117.02348046078,"N","Lake Murray","neighborhood"
32.7581437165411,-117.083917243623,"Y","Talmadge","neighborhood"
32.7650438649359,-117.08479704227,"N","Talmadge","neighborhood"
32.7662877325504,-117.081880774615,"Y","El Cerrito","neighborhood"
34.2146450027782,-118.426689634105,"Data Not Available","Panorama City","neighborhood"
37.9394764169447,-122.366682232792,"N","Iron Triangle","neighborhood"
32.5812529192005,-117.047862967201,"N","Otay Mesa West","neighborhood"
32.57090316599,-117.04665983107,"Y","Otay Mesa West","neighborhood"
32.7489880858972,-117.06721064141,"Y","Redwood Village","neighborhood"
32.8266433676058,-117.22288415834,"N","Bay Ho","neighborhood"
32.8206591688762,-117.194163421017,"N","Clairemont Mesa West","neighborhood"
32.7454229252242,-117.065337436586,"N","Redwood Village","neighborhood"
38.6064678521179,-121.350666971183,"Y","Walnut Terrace","neighborhood"
38.5991790063891,-121.359801179151,"N","Arden Oaks Vista","neighborhood"
32.8415278329006,-117.205232974934,"N","North Clairemont","neighborhood"
38.590200545818,-121.357900844106,"N","Mariemont","neighborhood"
38.5898787652398,-121.346092533846,"N","Del Dayo Estates","neighborhood"
38.6048324037049,-121.488233836923,"Y","American River Parkway","neighborhood"
38.5766265795081,-121.332041849839,"Y","Larchmont Riviera East","neighborhood"
38.6486632468213,-121.287361393645,"N","Bannister Heights","neighborhood"
38.542434675557,-121.424563747542,"N","Tahoe Park East","neighborhood"
38.6138541904859,-121.359893530867,"Y","Hazelwood","neighborhood"
38.6204921716669,-121.359123396767,"N","Parkland Estates","neighborhood"
32.8257404940131,-117.20023141772,"Data Not Available","North Clairemont","neighborhood"
34.447410472829,-118.529760295653,"N","Saugus","neighborhood"
32.7912409633111,-117.172287558529,"Y","Linda Vista","neighborhood"
34.4096208323802,-118.466220999758,"Data Not Available","Canyon Country","neighborhood"
32.7983194096312,-117.166177090037,"N","Linda Vista","neighborhood"
34.406155995359,-118.477131033481,"Y","Newhall","neighborhood"
37.9290187692609,-121.717321902885,"N","Woodside Glen","neighborhood"
32.8046995706281,-117.152951856985,"Y","Birdland","neighborhood"
37.7792097180027,-122.39542310254,"N","China Basin","neighborhood"
37.7665454995878,-122.427599570181,"N","Mission Dolores","neighborhood"
37.764714730559,-122.431302410377,"N","The Castro","neighborhood"
40.5824185629679,-122.345246764273,"Y","Woodside Meadows","neighborhood"
32.7788395799144,-117.171304640431,"Data Not Available","Linda Vista","neighborhood"
34.2034763299442,-119.170616447109,"N","La Colonia","neighborhood"
34.3832942570839,-118.562328618251,"Data Not Available","Newhall","neighborhood"
34.3908859268975,-118.564963167915,"Y","Valencia","neighborhood"
33.9921289251667,-117.471290222933,"N","Pedley","neighborhood"
34.3824536332088,-118.553456280955,"Data Not Available","Valencia","neighborhood"
33.9680882627427,-117.588728111786,"N","Eastvale Downs","neighborhood"
32.8067560672826,-117.205718564968,"N","Bay Park","neighborhood"
32.8045666844906,-117.19474646024,"Data Not Available","Bay Park","neighborhood"
34.1030135969315,-118.187001768356,"Y","Hermon","neighborhood"
34.1213315376422,-118.24238902575,"Y","Glassell Park","neighborhood"
34.1596266543501,-118.375538542515,"N","NoHo Arts District","neighborhood"
34.2666136279617,-118.377498786535,"Data Not Available","Lake View Terrace","neighborhood"
32.8277138715991,-117.111495064188,"N","Tierrasanta","neighborhood"
32.9244949366556,-117.039491936483,"N","Sycamore Estates","neighborhood"
32.8018206905034,-117.08365894125,"N","Allied Gardens","neighborhood"
40.4276942835547,-122.243917084928,"Y","Cascade","neighborhood"
40.5674241047207,-122.341078415234,"Y","Country Club Subdivision","neighborhood"
40.6296591758647,-122.414940715114,"Y","Buckeye","neighborhood"
40.5832924641593,-122.402803797107,"Y","Magnolia","neighborhood"
40.6411212641775,-122.381726240645,"Y","Oasis","neighborhood"
40.5721500861257,-122.405109295828,"Y","Benton","neighborhood"
40.5787496433084,-122.382015175063,"Y","Garden Tract","neighborhood"
40.5758459794863,-122.351905539424,"N","Mistletoe","neighborhood"
40.5706045700396,-122.383464707675,"Y","Parkview","neighborhood"
32.7869619866688,-117.106344453281,"Y","Grantville","neighborhood"
40.5598259642452,-122.381567303231,"N","Rivella Vista Estates","neighborhood"
40.5397710061179,-122.380640978566,"N","Bonnyview","neighborhood"
40.5395553384881,-122.369170044609,"Y","Moline Subdivision","neighborhood"
40.5744763148623,-122.396780427606,"Y","Greenwood Heights Subdivision","neighborhood"
32.8995358039922,-117.174957441806,"N","Sorrento Mesa","neighborhood"
40.5409353850458,-122.320649119354,"N","Saratoga","neighborhood"
32.5651278854994,-117.045736218474,"N","San Ysidro","neighborhood"
32.5607649440715,-117.046321169396,"Data Not Available","San Ysidro","neighborhood"
35.3198584371208,-120.8357905111,"N","Los Osos","neighborhood"
32.9042551273736,-117.121048615394,"Y","Mira Mesa","neighborhood"
32.8199488699244,-117.253060158321,"N","La Jolla Mesa","neighborhood"
32.8227854951787,-117.245373734552,"N","La Jolla Alta","neighborhood"
32.7253033724153,-117.161074588755,"Y","Bankers Hill","neighborhood"
32.7042793093159,-117.129214820087,"N","Memorial","neighborhood"
33.0705549958287,-117.102325653487,"N","Lake Hodges","neighborhood"
32.7525436062625,-117.111339419836,"Y","Corridor","neighborhood"
33.0940725548211,-117.10413092279,"N","Felicita","neighborhood"
32.6968662445016,-117.129002621782,"Y","Memorial","neighborhood"
32.7523137101821,-117.101994522502,"Y","Teralta West","neighborhood"
34.1326791701383,-118.18696501287,"N","Eagle Rock","neighborhood"
35.2853452767244,-120.658994507109,"Y","Mill Street Historic District","neighborhood"
35.2786096842654,-120.666452299231,"Y","Downtown Historic District","neighborhood"
35.2797630175725,-120.65608806171,"Y","Old Town Historic District","neighborhood"
32.8054623079781,-117.020977929718,"Y","Lake Murray","neighborhood"
32.8555215790487,-117.249444955194,"N","La Jolla Shores","neighborhood"
40.4768807105928,-122.33737320534,"N","Cascade","neighborhood"
32.8969626301487,-117.252800687868,"N","Torrey Pines","neighborhood"
33.1065661937326,-117.102982710956,"Y","Felicita","neighborhood"
32.7548552916133,-117.087920336475,"Y","Colina Del Sol","neighborhood"
33.1358110036268,-117.110930275236,"N","Country Club","neighborhood"
34.0980576250395,-118.23042566407,"Y","Cypress Park","neighborhood"
34.1020961842714,-118.232906608344,"N","Mount Washington","neighborhood"
32.9662721958559,-117.187525276586,"N","Pacific Highlands Ranch","neighborhood"
34.1512353305207,-118.228629952917,"Y","Woodbury","neighborhood"
32.8362826318094,-117.19960924249,"Y","North Clairemont","neighborhood"
32.7183726999344,-117.243071983507,"N","Wooded Area","neighborhood"
32.7603380746048,-117.075702400719,"N","El Cerrito","neighborhood"
32.6437018698545,-117.046159442505,"N","Terra Nova","neighborhood"
33.9337371718132,-118.284779949908,"N","Vermont Vista","neighborhood"
34.0450240302191,-118.519283277141,"N","Pacific Palisades","neighborhood"
34.047614787915,-118.380845427501,"N","Crestview","neighborhood"
32.787455899641,-117.045262606748,"N","San Carlos","neighborhood"
33.8663031799384,-118.289505804564,"Data Not Available","Harbor Gateway North","neighborhood"
33.8777040429096,-118.376705407571,"N","North Redondo","neighborhood"
35.1558185065944,-120.675802044015,"N","Shell Beach","neighborhood"
33.1381886108272,-117.057284648149,"Y","Midway","neighborhood"
33.0831857014851,-117.06519511837,"N","Kit Carson","neighborhood"
34.0456345868467,-118.423558686637,"N","Rancho Park","neighborhood"
34.0229839631968,-118.40808178925,"N","Palms","neighborhood"
38.558045276713,-121.775950325552,"N","Aspen","neighborhood"
34.2386448999107,-118.270148342991,"N","Tujunga","neighborhood"
34.2746835378732,-118.399435999486,"Data Not Available","Pacoima","neighborhood"
32.7617389956955,-117.180144106744,"N","Mission Valley West","neighborhood"
38.9437071118975,-119.981702670355,"Y","Al Tahoe","neighborhood"
38.2598264424341,-121.941476500487,"Data Not Available","Travis AFB","neighborhood"
33.8770081686204,-118.338993534792,"N","Northwest Torrance","neighborhood"
32.8077722478119,-117.266863518109,"N","Bird Rock","neighborhood"
38.9369032688479,-119.980635401952,"N","Al Tahoe","neighborhood"
34.1489393212839,-118.134659289876,"N","Playhouse Village","neighborhood"
34.1489252648984,-118.139197337672,"Y","Playhouse Village","neighborhood"
34.1560347096286,-118.128996084811,"Y","Catalina Villas","neighborhood"
34.1079210645173,-118.181443821803,"N","Hermon","neighborhood"
34.1184910348078,-118.221736405097,"N","Glassell Park","neighborhood"
33.8761397085795,-118.205773415525,"Y","College Square","neighborhood"
33.8759052559585,-118.199799955215,"Y","Freeway Circle","neighborhood"
33.8422636361562,-118.346995297907,"N","Delthorne","neighborhood"
33.8354662542769,-118.3396564296,"N","Madrona","neighborhood"
34.1766824764925,-118.488632660933,"N","Woodley","neighborhood"
34.2751882822936,-118.279217596774,"Data Not Available","Tujunga","neighborhood"
32.9675902468508,-117.075770787677,"N","Carmel Mountain Ranch","neighborhood"
32.719696686872,-117.089204449764,"Y","Ridgeview/Webster","neighborhood"
38.4783820374886,-121.383485185896,"Y","South Woods","neighborhood"
32.8689649196179,-117.234114762368,"N","La Jolla Village","neighborhood"
34.1488513738573,-118.126898769165,"N","Catalina Villas","neighborhood"
34.149336400935,-118.11517927436,"N","Mid Central","neighborhood"
34.1143670300906,-118.257492144409,"N","Atwater Village","neighborhood"
32.7522747862347,-117.096550288996,"Y","Teralta East","neighborhood"
33.7976407403802,-118.36297319308,"N","Valmonte","neighborhood"
32.6882220609763,-117.105229897976,"Y","Shelltown","neighborhood"
32.7094935412948,-117.14029650094,"Y","Sherman Heights","neighborhood"
37.6292509343253,-122.062292486434,"N","Tennyson - Alquire","neighborhood"
33.8373290347695,-118.172814927446,"N","Bixby Knolls","neighborhood"
33.8286908902491,-118.129529212722,"N","Old Lakewood City","neighborhood"
33.8166071551648,-118.1014987755,"N","Plaza","neighborhood"
34.0073090447234,-118.39019103235,"N","Jefferson","neighborhood"
34.0023430895114,-118.406832786137,"N","Park West","neighborhood"
37.9287424154745,-122.365745734015,"Y","Santa Fe","neighborhood"
32.9708787359324,-117.027935651124,"N","Old Poway","neighborhood"
32.752803644688,-117.053628792817,"N","Rolando Park","neighborhood"
32.7477239236569,-117.098761447667,"Data Not Available","Fairmount Village","neighborhood"
32.7325677220786,-117.098801418566,"Y","Swan Canyon","neighborhood"
34.1035822519596,-118.298364959347,"Y","Los Feliz","neighborhood"
34.050946538715,-118.250629786582,"Data Not Available","Bunker Hill","neighborhood"
33.8205215950445,-118.129569829982,"Data Not Available","South of Conant","neighborhood"
33.8139740284164,-118.188529995356,"Y","Memorial Heights","neighborhood"
34.244765992801,-118.257736649406,"Data Not Available","Crescenta Highlands","neighborhood"
32.7716219956259,-117.104382685545,"N","Kensington","neighborhood"
32.5814737773138,-117.057435529884,"N","Territorio #3","neighborhood"
33.9961720405856,-117.411252204005,"Y","Rubidoux","neighborhood"
32.721610451502,-117.127959537671,"N","South Park","neighborhood"
32.5609961063017,-117.069764171883,"N","Nestor","neighborhood"
32.746189350148,-117.222043085089,"N","Loma Portal","neighborhood"
33.8224761282474,-118.356907707618,"N","Southwood Riviera","neighborhood"
32.5798210267663,-117.101220021581,"Y","Egger Highlands","neighborhood"
32.5728434599236,-117.097019453904,"N","Egger Highlands","neighborhood"
33.8616287890064,-118.351054771504,"Y","Northwest Torrance","neighborhood"
33.7615713203512,-118.083180397155,"Y","Leisure World","neighborhood"
32.5861273560689,-117.08033303821,"N","Palm City","neighborhood"
32.5784869558503,-117.079236428308,"Y","Palm City","neighborhood"
32.5634794185599,-117.088338155242,"Data Not Available","Nestor","neighborhood"
36.9582613023287,-121.968919172779,"N","Opal Cliffs","neighborhood"
34.1434887749723,-117.3113256234,"Y","Muscupiabe","neighborhood"
37.7833450512387,-122.429359025202,"N","Western Addition","neighborhood"
38.0155815681616,-122.592297409903,"N","Sleepy Hollow","neighborhood"
37.745064314606,-122.424608379733,"N","Noe Valley","neighborhood"
37.7455357817219,-122.443582006393,"N","Diamond Heights","neighborhood"
37.7362729634551,-122.437461873655,"N","Glen Park","neighborhood"
34.2250938131567,-119.189172664458,"Y","Sierra Linda","neighborhood"
37.7610330892492,-122.384603600444,"N","Central Waterfront","neighborhood"
38.575712019402,-121.300840339594,"Y","Cordova Towne","neighborhood"
38.5832179520644,-121.305170718124,"N","Cordova Towne North","neighborhood"
38.5594207262059,-121.341574817012,"N","Larchmont Countryroads","neighborhood"
38.5497017919195,-121.339977164834,"N","Rose Park","neighborhood"
38.5611534295233,-121.374295099636,"Y","Glenbrook East","neighborhood"
38.0359773487942,-121.361771005879,"Data Not Available","Sherwoods Manor","neighborhood"
38.0371635243633,-121.350163597245,"N","Sherwoods Manor","neighborhood"
37.7874638686255,-122.461287111332,"N","Presidio Terrace","neighborhood"
37.78243335136,-122.462037802352,"N","Inner Richmond","neighborhood"
37.7792781671807,-122.50754736542,"N","Vista del Mar","neighborhood"
38.5676500996124,-121.366719456512,"N","Larchmont Riviera","neighborhood"
38.5755391476437,-121.338719143352,"N","Larchmont Riviera East","neighborhood"
38.5704004457853,-121.345057732923,"N","Sheffield","neighborhood"
37.7211640371903,-122.398229204142,"Data Not Available","Bret Harte","neighborhood"
37.7231120025402,-122.392677075556,"N","Bret Harte","neighborhood"
37.7467905045354,-122.407865113781,"Data Not Available","Peralta Heights","neighborhood"
37.7435882467327,-122.408857030494,"N","Peralta Heights","neighborhood"
37.7423899740445,-122.407164362654,"N","Bernal Heights","neighborhood"
37.741465070185,-122.416663379082,"Data Not Available","Bernal Heights","neighborhood"
37.7388850056801,-122.422109031914,"N","College Hill","neighborhood"
38.5565502834407,-121.350249518895,"N","Rosemont Square","neighborhood"
38.5560858000461,-121.362376461649,"N","Manlove Estates","neighborhood"
38.5598176148845,-121.355459358929,"N","Rosemont Park","neighborhood"
38.5430427673559,-121.367975954824,"N","Sunrise Homes","neighborhood"
38.5444858901309,-121.353557208591,"Y","Westporter","neighborhood"
37.7373757613908,-122.41833172351,"N","Holly Park","neighborhood"
37.7337500838687,-122.424612263702,"N","St. Marys Park","neighborhood"
33.844592864985,-117.869464283758,"N","Northeast Anaheim","neighborhood"
33.8411734326984,-117.917685217401,"Y","Downtown Anaheim","neighborhood"
37.8241122721335,-122.273102834745,"Y","Hoover - Foster","neighborhood"
37.8215211126325,-122.273962676295,"N","Hoover - Foster","neighborhood"
37.8252391622681,-122.280240106558,"Y","Clawson","neighborhood"
37.822703482263,-122.280692927621,"N","Clawson","neighborhood"
37.8208948294962,-122.281002122873,"N","McClymonds","neighborhood"
37.8184335530499,-122.281680404039,"Y","McClymonds","neighborhood"
38.4691660441818,-121.355164815324,"N","Churchill Downs","neighborhood"
37.8698834087474,-122.233634178998,"N","Panoramic Hill","neighborhood"
37.82939465615,-122.190219362966,"N","Piedmont Pines","neighborhood"
37.7641467951573,-122.155206449903,"N","Oak Knoll Golf Links","neighborhood"
37.7546033815364,-122.175813706575,"Y","Webster","neighborhood"
37.8372073294407,-122.217048293637,"N","Merriewood","neighborhood"
37.730619564221,-122.423150031742,"N","Mission Terrace","neighborhood"
37.7203414124482,-122.400785832555,"Y","Portola","neighborhood"
37.7243221408315,-122.431832358416,"N","Excelsior","neighborhood"
37.7128248843931,-122.404948231513,"Y","Visitacion Valley","neighborhood"
37.7098200442431,-122.416703793469,"N","Sunnydale","neighborhood"
37.7646541659837,-122.45943522352,"N","Inner Sunset","neighborhood"
37.7544421948396,-122.459545336453,"N","Forest Knolls","neighborhood"
37.709855703012,-122.408551886102,"N","Visitacion Valley","neighborhood"
37.7600803014947,-122.448915165633,"N","Ashbury Heights","neighborhood"
37.7584967260258,-122.473764863744,"Data Not Available","Golden Gate Heights","neighborhood"
37.75476530446,-122.466203114831,"N","Golden Gate Heights","neighborhood"
37.9069332652614,-122.106482231242,"N","Springhill","neighborhood"
37.8750691957977,-122.170760267371,"N","Overhill","neighborhood"
37.9657630995771,-122.288849059024,"N","May Valley","neighborhood"
38.4633269918555,-121.376098579369,"N","Nottingham","neighborhood"
38.4693950331231,-121.407948561523,"N","Cambridge South","neighborhood"
38.4723772231767,-121.401255587507,"N","Sunrise Greens","neighborhood"
