"lat","lng","DAC","place_name","place_type"
32.7303569771542,-117.078773816046,0.5,"Oak Park","neighborhood"
33.2495298697668,-117.314879399582,0.5,"North Valley","neighborhood"
34.2657218462797,-118.42624162783,0.5,"Pacoima","neighborhood"
34.3095081636078,-118.43777900871,0.5,"Sylmar","neighborhood"
34.2909015953461,-118.507468698016,0,"Granada Hills North","neighborhood"
34.1666155578538,-118.398425053107,0.5,"Valley Village","neighborhood"
34.2002074221032,-118.479304072523,0.5,"Lake Balboa","neighborhood"
34.1992761567818,-118.469987321475,0.5,"Van Nuys","neighborhood"
34.204665251439,-118.560086715777,0.5,"Reseda","neighborhood"
33.9481221301371,-118.287238106632,0.5,"Vermont Vista","neighborhood"
34.1623229092603,-118.262441424974,0.5,"Verdugo Viejo","neighborhood"
34.1636236109788,-118.267806384556,0.5,"Glenwood","neighborhood"
34.2618978739941,-118.475550768763,0,"Mission Hills","neighborhood"
34.2629392175404,-118.485983613512,0.5,"Granada Hills South","neighborhood"
34.229941196812,-118.370051207408,0.5,"Sun Valley","neighborhood"
37.672404774966,-122.485407494169,0,"St. Francis","neighborhood"
34.1840875489554,-118.59337328442,0.5,"Warner Center","neighborhood"
34.0741919117864,-118.380142305153,0.5,"Beverly Grove","neighborhood"
34.049855417312,-118.387407091654,0,"Pico - Robertson","neighborhood"
37.6588142729184,-122.463496134674,0.5,"Serramonte","neighborhood"
37.6514776582171,-122.461929967004,0,"Westborough","neighborhood"
34.0335009355971,-118.345489318891,0.5,"Jefferson Park","neighborhood"
34.0348619589533,-118.278622598023,0.5,"University Park","neighborhood"
34.0083388550902,-118.279652664989,0.5,"Historic South Central","neighborhood"
33.9974799169601,-118.326591824411,0.5,"Park Mesa Heights","neighborhood"
33.9784690703821,-118.296974107529,0.5,"Vermont-Slauson","neighborhood"
38.770733859492,-121.352453171494,0.5,"Sun City","neighborhood"
38.7729988314983,-121.335511519406,0,"Quail Glen","neighborhood"
34.1191239789982,-117.213263447575,0.5,"Cypress","neighborhood"
34.1249030741415,-117.213112858865,0.5,"San Andreas","neighborhood"
34.0561413874182,-117.183648438528,0,"Downtown Redlands","neighborhood"
32.6941546714331,-117.090176480903,1,"Lincoln Park","neighborhood"
33.9349139608805,-118.228003643979,0.5,"Watts","neighborhood"
34.0380071207897,-117.489058988214,0.5,"Southridge Village","neighborhood"
34.096153920876,-117.341181327409,0.5,"Rancho West","neighborhood"
38.447587351548,-122.614729262876,0,"Oakmont Village Association","neighborhood"
37.3514776297143,-121.793988417049,0,"Terrace Hill","neighborhood"
37.3131343931114,-121.778496488794,0,"Fowler Creek","neighborhood"
37.3003712548894,-121.794402359444,0,"Silver Creek High School","neighborhood"
37.3147040801898,-121.947773255886,0,"Magliocco - Huff","neighborhood"
37.3281284851824,-121.898298417992,0,"Park - Lorraine","neighborhood"
37.318456192752,-121.89196531623,0,"Gardner","neighborhood"
37.757432900685,-122.445214320265,0,"Clarendon Heights","neighborhood"
37.7484816260498,-122.446219470223,0,"Midtown Terrace","neighborhood"
37.7529989877232,-122.446109583108,0,"Upper Market","neighborhood"
37.7627990913057,-122.402106051669,0.5,"Potrero Hill","neighborhood"
37.7306636895801,-122.416237635871,0.5,"Portola","neighborhood"
37.7212729346079,-122.45428165564,0,"Ingleside","neighborhood"
37.7194692668182,-122.450184835607,0,"Oceanview","neighborhood"
34.1734598156542,-117.289179195232,0.5,"Cajon","neighborhood"
33.1774520502231,-117.263120165815,0.5,"Ocean Hills","neighborhood"
33.146279461141,-117.067280200769,0.5,"Midway","neighborhood"
33.1285701474078,-117.084927178746,0.5,"Central Escondido","neighborhood"
38.7516945953704,-121.253616629594,0,"Lead Hill","neighborhood"
34.173185221652,-118.506776716631,0,"Encino Village","neighborhood"
34.0465563840309,-117.379605295615,0.5,"Agua Mansa Industrial Corridor","neighborhood"
34.1352423954696,-118.256413587284,0.5,"Pacific - Edison","neighborhood"
34.1354280876626,-118.253350312647,0.5,"Mariposa","neighborhood"
34.1295187098056,-118.25257579604,0.5,"Adams Hill","neighborhood"
34.112050291554,-117.305792033067,1,"La Plaza","neighborhood"
34.1330037922551,-118.252211201633,0.5,"Tropico","neighborhood"
34.084589661737,-118.346367545071,0,"Melrose","neighborhood"
34.1340545196938,-117.239990761571,0.5,"San Gorgonio","neighborhood"
34.1090747981411,-118.282893724127,0.5,"Los Feliz","neighborhood"
34.0880046275248,-118.272330753987,0.5,"Silver Lake","neighborhood"
34.0670641569038,-118.3573740302,0.5,"La Brea","neighborhood"
34.0504458133547,-118.403979824998,0.5,"Cheviot Hills","neighborhood"
34.0314619866109,-118.394823045305,0,"Castle Heights","neighborhood"
34.0304631426346,-118.445450684186,0,"Sawtelle","neighborhood"
32.6333860064648,-117.015631891485,0,"Rancho\Del Rey III","neighborhood"
37.3090721382981,-121.765607044815,0,"Chaboya","neighborhood"
37.3528049325348,-121.851062161274,1,"Mayfair North","neighborhood"
32.6490093340122,-117.010143371075,0,"Rancho del Rey","neighborhood"
38.4191551574254,-122.737420518927,0.5,"Southwest Santa Rosa","neighborhood"
37.3649895377752,-121.846459792138,1,"Alexian","neighborhood"
37.3627093617167,-121.839370258221,0.5,"Gramercy and Alexander","neighborhood"
37.3117740798671,-121.858572738288,0.5,"Spartan Keyes and Wool Creek","neighborhood"
37.3273785354549,-121.850441849318,0.5,"Kennedy","neighborhood"
37.7162921922472,-122.464970237207,0,"Ingleside Heights","neighborhood"
37.7624707900424,-122.4808166594,0,"Outer Sunset","neighborhood"
37.7476497777958,-122.477658126366,0,"Parkside","neighborhood"
37.5867569056433,-122.375673088143,0,"Easton Addition","neighborhood"
37.7154350732158,-122.476550393343,0.5,"Parkmerced","neighborhood"
37.4738911182321,-122.21024651983,0,"Fair Oaks","neighborhood"
33.9556791344459,-117.333417079679,0.5,"Canyon Crest","neighborhood"
32.9098824703674,-117.093444744152,0,"Scripps Ranch","neighborhood"
34.054441043018,-117.197735874996,0.5,"Redlands","neighborhood"
34.1754281870722,-117.317359514816,0.5,"University","neighborhood"
38.7546017293447,-121.332592588957,0.5,"Woodcreek Oaks","neighborhood"
36.788371582966,-119.805120610558,0,"Fig Garden","neighborhood"
34.2333984889364,-118.465772322481,0.5,"North Hills East","neighborhood"
33.8129087113294,-118.129603401397,0,"South of Conant","neighborhood"
32.6173448242412,-117.031058514641,0,"Sunbow","neighborhood"
38.706320424958,-121.37955818029,0.5,"North Country","neighborhood"
34.0604481849354,-118.271933631062,1,"Westlake South","neighborhood"
33.7571690944231,-117.879581569553,0.5,"Washington Square","neighborhood"
38.657907053143,-121.501101260825,0,"Natomas Park","neighborhood"
33.7852604321528,-117.910525764196,0.5,"Anaheim Resort","neighborhood"
33.75068761555,-117.924572308202,0.5,"Riverview West","neighborhood"
38.6387191658123,-121.533696500447,0.5,"Gateway West","neighborhood"
38.6132703458946,-121.526475308896,0,"Willow Creek","neighborhood"
33.7642884107282,-117.89997577146,0,"Edna Park","neighborhood"
33.7579834243142,-117.915906519595,0.5,"Santa Anita","neighborhood"
34.1991554341326,-118.411648085536,0.5,"Valley Glen","neighborhood"
34.0223847211111,-118.491047117936,0.5,"Downtown","neighborhood"
34.1191371047562,-118.200907423252,0.5,"Highland Park","neighborhood"
37.379160603859,-121.845133345291,0,"Mayglen - Little Rock","neighborhood"
37.3734402749935,-121.848912960507,0,"Cedarville - Giannotta","neighborhood"
37.3604544083303,-121.860546276856,1,"El Ranco Verde","neighborhood"
37.3773493408662,-121.82835981273,0,"La Pala","neighborhood"
37.3739467126061,-121.83165750211,0,"John Vianney","neighborhood"
37.3946482244836,-121.852470056171,0,"St. Victor","neighborhood"
37.3452835920815,-121.837552121586,1,"Poco","neighborhood"
37.3034742804332,-121.86987970097,0,"The Plant","neighborhood"
34.1506190621308,-118.267197214433,0.5,"Vineyard","neighborhood"
37.3262029192012,-121.858771357574,1,"Little Saigon and Spring Brook","neighborhood"
37.4067400722558,-121.851011888418,0,"Piedmont","neighborhood"
37.3182380906384,-121.922253333801,0.5,"Buena Vista","neighborhood"
33.7422100678548,-118.104790130923,0,"Old Towne","neighborhood"
33.7461939099053,-118.10780882154,0,"Bridgeport","neighborhood"
33.7678062786199,-118.180628865491,0.5,"Alamitos Beach","neighborhood"
33.8797239114266,-118.17266036159,0.5,"North Long Beach","neighborhood"
34.038777950266,-118.49233669761,0,"North of Montana","neighborhood"
37.7817784156504,-122.481568083411,0,"Little Russia","neighborhood"
37.7815250886342,-122.475363249398,0,"Central Richmond","neighborhood"
37.7852489862937,-122.475619482685,0,"Lake Street","neighborhood"
37.7731657548016,-122.491767558531,0,"Outer Richmond","neighborhood"
37.7376329136275,-122.388398504089,0.5,"Bayview","neighborhood"
33.7917119821322,-118.17450263388,1,"Poly High","neighborhood"
34.0036370024579,-118.442427925398,0.5,"Mar Vista","neighborhood"
37.8447128810908,-122.241150867988,0,"Upper Rockridge","neighborhood"
37.8262596190803,-122.215755678736,0,"Montclair","neighborhood"
37.8036848785918,-122.212101269163,0,"Upper Dimond","neighborhood"
37.7839133481339,-122.196377398787,0,"Maxwell Park","neighborhood"
37.7813136637867,-122.184940141046,0,"Mills College","neighborhood"
37.7899307609003,-122.181550232749,0,"Redwood Heights","neighborhood"
37.8478651490466,-122.274280908657,0,"South Berkeley","neighborhood"
37.7171725095444,-122.136128951182,0.5,"Assumption Parish","neighborhood"
37.7129836590276,-122.132970931737,0.5,"Upper Bal","neighborhood"
34.2371714613112,-118.445887841698,0.5,"Arleta","neighborhood"
37.7032550598836,-122.130737211536,0.5,"Lower Bal","neighborhood"
37.635258296084,-122.07981464969,0.5,"Harder-Tennyson","neighborhood"
37.6417775035378,-122.067411101813,0,"Whitman - Wocine","neighborhood"
38.7643409299691,-121.303458191032,0.5,"Kaseberg - Kingswood","neighborhood"
38.8044327969396,-121.334619585048,0,"Blue Oaks","neighborhood"
38.785067066056,-121.293358462987,0,"Highland Reserve","neighborhood"
37.5519841170394,-121.948804628013,0,"Kimber - Gomes","neighborhood"
37.542620789925,-121.936324487692,0,"Mission Valley","neighborhood"
34.0664488050991,-117.154175671483,0.5,"North Redlands","neighborhood"
37.9133247201329,-122.376881695452,0,"Point Richmond","neighborhood"
37.9275654061007,-122.345189954354,1,"Stege","neighborhood"
37.9282598690625,-122.356529553873,0.5,"Coronado","neighborhood"
34.0054861597443,-118.313022522996,0.5,"Leimert Park","neighborhood"
34.1415400221272,-118.231270369951,0.5,"Somerset","neighborhood"
34.2117945571924,-118.590663047874,0.5,"Canoga Park","neighborhood"
33.8115712921934,-118.323780562959,0,"Southeast Torrance","neighborhood"
33.8211245308811,-118.09609824267,0,"Carson Park","neighborhood"
34.1217435247332,-117.304691085388,0.5,"Roosevelt","neighborhood"
34.0895728288989,-118.384972162052,0.5,"Norma Triangle","neighborhood"
34.0253571875112,-118.337736267295,0.5,"Crenshaw","neighborhood"
34.0035275984502,-118.39679948807,0,"Studio Village","neighborhood"
34.0504683418835,-117.16139585873,0.5,"South Redlands","neighborhood"
34.0592418376715,-118.269484354738,1,"Westlake North","neighborhood"
34.0313932761252,-118.385832954575,0.5,"Palms","neighborhood"
34.0354595034571,-118.487937351628,0.5,"Wilshire Montana","neighborhood"
37.3597189788549,-121.827678761685,0,"Lyndale","neighborhood"
37.3915616606096,-121.868007594649,0,"Old Post","neighborhood"
37.3956805302791,-121.899320966416,0,"Brokaw","neighborhood"
37.2976303009136,-121.909471800142,0,"Willow Glen West","neighborhood"
34.058512144182,-118.076654090118,0.5,"Garvey","neighborhood"
37.3855604250613,-121.879243459667,0,"Vinci North","neighborhood"
37.2895904796813,-121.900687278385,0,"Cherry","neighborhood"
37.2812630055666,-121.93390496408,0,"Bonnett","neighborhood"
37.7904205855694,-122.410540389475,0.5,"Lower Nob Hill","neighborhood"
37.7861600809295,-122.413901722972,0.5,"Tenderloin","neighborhood"
33.9897388336416,-117.364718657029,0.5,"Downtown Riverside","neighborhood"
34.0111092856891,-117.370098098024,0.5,"Northside","neighborhood"
38.7669617479053,-121.239576617935,0,"East Roseville Parkway","neighborhood"
38.754997392664,-121.271783225439,1,"Enwood","neighborhood"
38.7638515179076,-121.289573972877,0,"Diamond Oaks","neighborhood"
34.1413441944437,-117.215104078243,0.5,"Amber Hills","neighborhood"
34.1443124309231,-117.203315596897,0.5,"Small Canyon","neighborhood"
38.0316070490145,-121.319899616565,0.5,"Bear Creek","neighborhood"
38.0021008173266,-121.292814410531,0.5,"Valley Oak","neighborhood"
33.7349888077971,-117.941694057496,0,"West Grove Valley","neighborhood"
36.7974920664565,-119.654985464877,0,"Loma Vista","neighborhood"
33.7117928947347,-117.995201253865,0.5,"Oak View","neighborhood"
33.7183275258853,-118.066787535727,0,"Sunset Beach","neighborhood"
38.4678200639746,-121.437280372603,0.5,"Valley Hi / North Laguna","neighborhood"
37.4060290875054,-122.12994969304,0,"Green Acres","neighborhood"
37.255917585803,-121.917614212639,0,"Oster","neighborhood"
37.2522091119878,-121.901419545404,0,"Branham - Kirk","neighborhood"
37.2391084996184,-121.929939522287,0,"Cambrian","neighborhood"
37.248190528659,-121.87705041746,0,"Almaden Community Association","neighborhood"
37.2351915511047,-121.782352330391,0,"Santa Teresa","neighborhood"
34.1248801018618,-117.20216081167,0.5,"Crossroads","neighborhood"
37.7393664130887,-122.433318692089,0,"Fairmount","neighborhood"
37.731485176191,-122.402035553491,0.5,"Silver Terrace","neighborhood"
37.8078536755817,-122.217203816737,0.5,"Glenview","neighborhood"
37.7775164033913,-122.176423927034,0.5,"Millsmont","neighborhood"
37.8857871530613,-122.250141077616,0,"Berkeley Hills","neighborhood"
37.8834900641023,-122.264215518679,0,"North Berkeley","neighborhood"
37.8805195943557,-122.287061775362,0,"Northwest Berkeley","neighborhood"
33.4584384181046,-117.097851777285,0,"Wolf Creek","neighborhood"
37.6973548231865,-122.142877146586,0.5,"Floresta Gardens - Bradrick","neighborhood"
37.6938800796966,-122.147378801768,0.5,"Washington Manor - Bonaire","neighborhood"
33.9602620405267,-117.422270265371,0.5,"Grand","neighborhood"
37.5518259996851,-122.000631722348,0,"Glenmoor","neighborhood"
37.6399271296467,-122.057574559231,0.5,"Mission - Garin","neighborhood"
37.618527755022,-122.031964271854,0,"Fairway Prk","neighborhood"
33.8195091236311,-116.541250228771,0.5,"Downtown Palm Springs","neighborhood"
37.5372859149264,-121.971154037994,0,"South Sundale","neighborhood"
40.5962703958644,-122.370523302363,0.5,"Bluffs","neighborhood"
40.6013805823401,-122.354731442146,1,"Tanglewood","neighborhood"
40.5715741316159,-122.434413485876,0,"Mary Lake","neighborhood"
40.579253231873,-122.421249797263,0,"Lakeside Avenues Subdivision","neighborhood"
38.8927225761303,-121.283957686855,0.5,"Downtown Lincoln","neighborhood"
40.5893575953195,-122.404802722168,0.5,"Lakeview","neighborhood"
37.9273351280848,-122.326693593662,0.5,"Park Plaza","neighborhood"
40.6215076322886,-122.396059337349,1,"Jennifer Manor","neighborhood"
40.6175731625442,-122.369852908335,1,"Redding Valley View Subdivision","neighborhood"
40.5468453093264,-122.326678887212,0,"Saratoga North-amend 2565","neighborhood"
40.5547105832684,-122.349534187233,1,"Echo Oaks Subdivision","neighborhood"
40.5474115793941,-122.339575939039,0.5,"Alta Mesa","neighborhood"
40.5888232009145,-122.427560160928,0,"Sunset Terrace","neighborhood"
40.5680031864651,-122.419749759136,0,"Ridgeview","neighborhood"
40.5236881096777,-122.364205613753,0,"Girvan","neighborhood"
40.5435001743694,-122.346396564598,0.5,"Enterprise","neighborhood"
40.5428446183754,-122.333325155058,0,"Victor Estates","neighborhood"
40.6057132953292,-122.368063848039,1,"Woodcliff Estates","neighborhood"
40.6152913554985,-122.381733800278,1,"Northpoint","neighborhood"
40.5889191632702,-122.347712680902,1,"Mt Shasta Mall","neighborhood"
40.5983376639441,-122.344930518358,1,"Quail Ridge","neighborhood"
36.7104411440843,-119.812304817756,0.5,"Edison","neighborhood"
34.1571327775018,-118.26991481958,0.5,"Fremont Park","neighborhood"
34.1598403558123,-118.277683257785,0,"Pelanconi","neighborhood"
38.0246416603133,-121.357628125847,0.5,"Sherwoods Manor","neighborhood"
37.3766552845867,-122.165771848695,0,"Palo Alto Hills","neighborhood"
37.2521852039626,-121.879247343533,0,"Dentwood","neighborhood"
37.306903075498,-121.824508759713,0,"Windmill Springs","neighborhood"
37.3058328375985,-121.805632791856,0,"Brigadoon","neighborhood"
37.3103058912392,-121.77989008755,0.5,"Fowler","neighborhood"
37.7181798527642,-122.418761343452,1,"McLaren Park","neighborhood"
36.5569596482232,-121.923174683052,0,"Northwest Carmel","neighborhood"
32.8148107672136,-117.22675427362,0.5,"Pacific Beach","neighborhood"
33.912229267568,-117.453679385169,0.5,"Arlington","neighborhood"
34.0139376305841,-117.4295959045,0,"Sunnyslope","neighborhood"
34.1560937031986,-118.697010389409,0,"Malibu Canyon","neighborhood"
37.7786361846465,-122.431776637653,0.5,"Alamo Square","neighborhood"
37.7562388242312,-122.418857278542,0.5,"Mission District","neighborhood"
37.7580711975913,-122.4328862583,0,"Eureka Valley","neighborhood"
37.7850294130471,-122.456262954799,0,"Jordan Park","neighborhood"
37.757627025137,-122.429057551062,0,"Dolores Heights","neighborhood"
37.7914584036563,-122.417495148024,0.5,"Nob Hill","neighborhood"
37.7956764975338,-122.405824920533,0.5,"Chinatown","neighborhood"
37.7772028970599,-121.552688207218,0,"Bethany Village","neighborhood"
37.9353266076563,-121.302824713405,0.5,"Seaport","neighborhood"
38.053177660723,-121.360176414898,0,"Spanos Park","neighborhood"
37.9978830782908,-121.353684302499,0.5,"Lincoln Village West","neighborhood"
38.0356871706772,-121.33402933746,0.5,"Stonewood","neighborhood"
37.9156358604521,-121.232285237341,0.5,"Park","neighborhood"
37.9033633813533,-121.290025094081,0.5,"Weston Ranch","neighborhood"
37.5813353385668,-122.000367402162,0,"Niles","neighborhood"
37.7249275188739,-122.1508627777,0,"Estudillo Estates - Glen","neighborhood"
37.5605906466241,-122.059336694274,0.5,"Ardenwood","neighborhood"
37.5708711278617,-122.038004993399,0,"Northgate","neighborhood"
37.550770776638,-121.963335386076,0,"Central District","neighborhood"
37.6473248155306,-122.114285489176,0.5,"Mt. Eden","neighborhood"
37.548001607523,-122.013139214436,0,"Centerville","neighborhood"
37.4861110923067,-121.958714018796,0,"Baylands","neighborhood"
35.292326152065,-119.052261293003,1,"Ridgeview Estates","neighborhood"
35.274220863425,-119.052253128693,1,"Stone Creek","neighborhood"
38.6105800049398,-121.501497488913,1,"Natomas Corporate Center","neighborhood"
38.5429384705205,-121.238999833389,0,"Anatolia Village","neighborhood"
38.4137761631467,-122.761337203147,0,"Wright Area Action Group","neighborhood"
38.4689668200077,-122.643743519274,0,"Skyhawk Commmunity","neighborhood"
37.4974427711005,-121.932323143929,0,"East Industrial","neighborhood"
37.6645352583913,-122.093871683077,0,"Burbank","neighborhood"
37.5671753700202,-122.015778424791,0,"Brookvale","neighborhood"
37.6516414121859,-122.08532723565,0.5,"Jackson Triangle","neighborhood"
37.5660852793562,-121.998511049584,0,"Parkmont","neighborhood"
37.6620445938244,-122.067789400572,0,"Mission/Foothills","neighborhood"
37.5419416626675,-121.987270511773,0,"Sundale","neighborhood"
37.5364825882121,-121.924964621031,0,"Mission San Jose","neighborhood"
37.7141014099106,-121.72927797929,0.5,"Springtown","neighborhood"
37.5219038791118,-121.9534416553,0,"Grimmer","neighborhood"
37.7236052910698,-122.160471136005,0.5,"Old San Leandro","neighborhood"
37.8221687414873,-122.249689931529,0,"Grand Lake","neighborhood"
37.8031183895552,-122.263844266158,0.5,"Lakeside","neighborhood"
37.8010980102481,-122.265120564049,0.5,"Civic Center","neighborhood"
37.7934620052733,-122.265816727711,0,"Produce and Waterfront","neighborhood"
37.7940367733117,-122.254425828879,0.5,"Merritt","neighborhood"
37.8015805808094,-122.250209805819,0.5,"Cleveland Heights","neighborhood"
37.8092376341245,-122.27047573693,0.5,"Uptown","neighborhood"
37.8138173320278,-122.263562529398,0.5,"Northgate - Waverly","neighborhood"
37.8005389390838,-122.276586338906,0,"Old Oakland","neighborhood"
37.78627235148,-122.170414908743,0,"Caballo Hills","neighborhood"
37.8703657800329,-122.267566012424,0.5,"Downtown Berkeley","neighborhood"
37.856749584707,-122.220090364169,0,"Claremont Hills","neighborhood"
37.8132259231293,-122.256473145744,0,"Adams Point","neighborhood"
37.5641178125136,-121.971366804988,0,"Cherry - Guardino","neighborhood"
37.652167670223,-122.039718241006,0,"Hayward Highland","neighborhood"
37.8110229490768,-122.30191092721,0.5,"Prescott","neighborhood"
37.5354025103249,-121.959225955157,0.5,"Irvington","neighborhood"
37.4709739894971,-121.913424546253,0.5,"Warm Springs","neighborhood"
37.8115856789272,-122.288859996947,0.5,"Oak Center","neighborhood"
37.8319549848162,-122.252855046068,0.5,"Piedmont Avenue","neighborhood"
37.8654453749753,-122.263213752331,1,"Southside","neighborhood"
37.8513526247032,-122.269306917,0,"Bushrod","neighborhood"
38.7796664137156,-121.278400027334,0,"Harding","neighborhood"
38.864198788429,-121.235968399859,0,"Verdera","neighborhood"
38.5398876949493,-121.731016798082,1,"Interland/Univ. Research Park","neighborhood"
38.5656114019631,-121.726799270838,0,"Green Meadows","neighborhood"
38.5608053596484,-121.71554905567,0,"Slide Hill Park","neighborhood"
38.5529920314935,-121.722528157266,1,"Rancho Yolo","neighborhood"
38.5446423430657,-121.702620407993,0,"Willowcreek","neighborhood"
37.5487600622744,-122.302994461636,0,"South San Mateo","neighborhood"
37.5829864266796,-122.329210934714,0.5,"North Central","neighborhood"
37.5710895631363,-122.299936832487,0,"Shoreview","neighborhood"
37.4677917059234,-122.217855774717,0,"Redwood Oaks","neighborhood"
37.6600620305616,-122.420488937968,0,"Sign Hill","neighborhood"
37.7012331882669,-122.460741657284,0.5,"Hillside","neighborhood"
37.5628205524979,-122.328433290793,0,"Baywood - Aragon","neighborhood"
37.6821295710883,-122.397645283775,0,"Bayside Ridge","neighborhood"
37.6596374386121,-122.43434576789,0,"Sunshine Gardens","neighborhood"
37.7004651816678,-122.45618784216,0,"Crocker","neighborhood"
38.5054937180431,-121.544349499893,0.5,"Pocket","neighborhood"
38.5507751026905,-121.449314148955,1,"Fairgrounds","neighborhood"
38.6487978983257,-121.443082372518,0.5,"Robla","neighborhood"
38.6293813431413,-121.452379892705,0.5,"West Del Paso Heights","neighborhood"
38.4690938754495,-121.388537590643,0,"Glen Ivy","neighborhood"
38.6512736917535,-121.514938539547,0.5,"RP Sports Complex","neighborhood"
38.5919785054703,-121.278414384974,0,"Prospect Green Open Space","neighborhood"
38.6188664391323,-121.5106667088,0.5,"South Natomas","neighborhood"
38.6605683281432,-121.539380170561,0.5,"Westlake","neighborhood"
38.2859616275936,-121.291949770194,0,"Country Meadows","neighborhood"
38.4757092165134,-121.42976873553,0.5,"Parkway","neighborhood"
38.2722408459836,-121.296818953753,0.5,"River Oaks","neighborhood"
38.63789849402,-121.464304932091,1,"Norwood Tech","neighborhood"
38.4177661273326,-121.475056194024,0,"Laguna West","neighborhood"
38.7007314574034,-121.369354202552,0,"Sunrise Antelope","neighborhood"
38.6530703612614,-121.462185825268,0.5,"Glenwood Meadows","neighborhood"
38.4735287903967,-121.325114400411,0,"Wildhawk West","neighborhood"
38.6273305238321,-121.462557786358,1,"Strawberry Manor","neighborhood"
38.620974332233,-121.452225140489,1,"Richardson Village","neighborhood"
38.514448268729,-121.538315123823,0.5,"Greenhaven","neighborhood"
38.5104980673634,-121.519028709628,0.5,"South Land Park","neighborhood"
38.5600412045006,-121.47486335283,0.5,"Newton Booth","neighborhood"
38.5362011550222,-121.445030009693,0.5,"Colonial Heights","neighborhood"
37.6556379794758,-122.448012577083,0,"Serra Highlands","neighborhood"
37.6813193490265,-122.404569144419,0,"Uptown Brisbane","neighborhood"
37.4814432046856,-122.234568462677,0,"Mount Carmel","neighborhood"
37.4681637103145,-122.227141056655,0.5,"Palm Park","neighborhood"
37.5381799782304,-122.242729551334,0,"Redwood Shores","neighborhood"
37.5750079978809,-122.349685386966,0,"Burlingame Park","neighborhood"
38.6382606078529,-121.433993570242,1,"Del Paso Heights","neighborhood"
38.6217197371991,-121.405653499747,1,"Bohemian Village","neighborhood"
38.6961318269534,-121.369419365363,0.5,"Larchmont Village","neighborhood"
38.473433627738,-121.494069706733,0.5,"Meadowview","neighborhood"
38.5574356495506,-121.430708537923,0,"East Sacramento","neighborhood"
38.4990541552223,-121.477001694977,1,"Woodbine","neighborhood"
38.6730983291775,-121.19900188099,0,"Palisades","neighborhood"
38.5358942548445,-121.431301292043,1,"Tahoe Park South","neighborhood"
38.5359818220994,-121.424299352925,1,"Colonial Manor","neighborhood"
38.5763038371233,-121.480818365862,0.5,"Midtown","neighborhood"
38.719616633793,-121.339337977699,0,"Highland Hill","neighborhood"
38.6391202225851,-121.37198926368,1,"Evergreen Estates","neighborhood"
38.7167251944563,-121.343109104324,0,"Greens","neighborhood"
38.5613929002394,-121.482216870122,1,"Poverty Ridge","neighborhood"
38.5223653312042,-121.430668983958,1,"Fruitridge Manor","neighborhood"
38.6314464677557,-121.462853547764,1,"Johnson Heights","neighborhood"
38.6021389333236,-121.463054594616,1,"Woodlake","neighborhood"
38.5774915170142,-121.466897032604,0.5,"Marshall School","neighborhood"
38.6126724760727,-121.449618965477,1,"Old North Sacramento","neighborhood"
38.7229625595899,-121.379802756957,0,"Rapozo Court","neighborhood"
38.5373950788501,-121.467654431203,1,"South Oak Park","neighborhood"
38.6716962162131,-121.535154165932,0,"Natomas Creek","neighborhood"
38.5222827122437,-121.452289452174,1,"Sandra Heights","neighborhood"
38.5131434856018,-121.452168278907,1,"Fruitridge Vista","neighborhood"
38.6368160632049,-121.518474439162,0.5,"Natomas Crossing","neighborhood"
38.6805311178096,-121.512544156663,0.5,"Heritage Park","neighborhood"
38.6676424604766,-121.137531945719,0,"Willow Creek Estates South","neighborhood"
38.5547581329613,-121.237180633174,0,"Anatolia","neighborhood"
38.6821858060361,-121.23260167097,1,"Woodhaven Heights","neighborhood"
38.5973912484101,-121.458575455867,0,"Johnston Business Park","neighborhood"
38.4893559044244,-121.411754967865,1,"Scottsdale","neighborhood"
38.6810508807953,-121.132533375999,0,"Willow Creek Estates East","neighborhood"
38.6792391557476,-121.117727879231,0,"The Parkway","neighborhood"
38.5578749992798,-121.454052003868,0,"Elmhurst","neighborhood"
38.5147290053734,-121.443398175086,1,"Cloverdale Manor","neighborhood"
38.5108517657978,-121.389994545405,1,"Florin Fruitridge Industrial Park","neighborhood"
38.7170670527271,-121.361770991249,1,"Antelope Highlands","neighborhood"
38.4842414010481,-121.41104866546,0.5,"Cottonwood","neighborhood"
38.7073496055715,-121.339069594771,0,"East Antelope Woods","neighborhood"
38.666721859888,-121.264517671263,0,"Walnut Grove Estates","neighborhood"
38.5463359624276,-121.284508939312,0,"Mather","neighborhood"
38.6199191601698,-121.461466121881,1,"Wills Acres","neighborhood"
38.7077807120895,-121.359072696197,0,"Winje Estates","neighborhood"
38.645920323571,-121.533854163971,0,"Sundance Lake","neighborhood"
38.6314730828276,-121.375646248838,1,"Gary Gardens","neighborhood"
38.6397638665423,-121.35128680268,0,"Cypress Manor","neighborhood"
38.5708369567344,-121.397593428345,0,"Sierra Oaks","neighborhood"
38.5594583669705,-121.399254626175,0.5,"College/Glen","neighborhood"
38.614757161787,-121.454343969791,1,"Noralto","neighborhood"
38.6705041612582,-121.530413695897,0,"Creekside","neighborhood"
38.4930260729052,-121.422087041589,0.5,"Lindale","neighborhood"
38.7234685174931,-121.371935233226,0,"Larchmont Antelope Creek","neighborhood"
38.7175461560612,-121.369429524813,0,"California Homestead","neighborhood"
38.6532060378453,-121.336198547376,0,"Cameron Ranch","neighborhood"
38.6546708075142,-121.32986655715,1,"Green Tree","neighborhood"
37.495398801962,-122.241673223172,0,"Centennial","neighborhood"
37.5696349028888,-122.272140923424,0,"Vintage Park","neighborhood"
37.482443000786,-122.193924222408,0.5,"Friendly Acres","neighborhood"
37.666504000474,-122.41396781029,0,"Paradise Valley","neighborhood"
37.4583248441195,-122.235922943383,0,"Woodside Plaza","neighborhood"
37.4595909215074,-122.149041625671,0,"The Willows","neighborhood"
37.6515196304247,-122.394262902137,0,"The East Side","neighborhood"
38.4880168762477,-121.419471616572,1,"Fleming Heights","neighborhood"
38.7154174223073,-121.377364123544,1,"Antelope Heights","neighborhood"
38.6104460403219,-121.490010106674,0,"River Gardens","neighborhood"
38.4628838995144,-121.365844405476,0.5,"Meadowbrook","neighborhood"
38.6489550010597,-121.433801195351,0.5,"Raley Industrial Park","neighborhood"
40.5836754275059,-122.374539497168,1,"Kutras Riverside Addition","neighborhood"
40.4956858472258,-122.28401703523,0.5,"Pacheco","neighborhood"
40.5893162101222,-122.328003206364,0,"Lema Ranch","neighborhood"
33.9117893468774,-118.373492653436,0,"HollyGlen","neighborhood"
34.4195599315111,-119.730852616645,0,"Bel Air","neighborhood"
34.4116306396387,-119.748586853244,0,"Campanil","neighborhood"
34.3993574582032,-119.728843035922,0,"West Mesa","neighborhood"
34.0489410907571,-117.78083649596,0.5,"Phillips Ranch","neighborhood"
34.1306854582778,-118.660305875175,0,"Calabasas Park Estates","neighborhood"
34.1430463319323,-118.618533591496,0,"Greater Mulwood","neighborhood"
34.157883359402,-118.092783453772,0,"Daisy-Villa","neighborhood"
34.054767071918,-117.974330790348,0.5,"Bassett","neighborhood"
34.1505398017923,-118.092586198264,0,"Lamanda Park","neighborhood"
34.4173149556863,-119.675538353976,0,"East Beach","neighborhood"
34.4193610066931,-119.695787539801,0,"Lower State","neighborhood"
34.4229240754752,-119.672980068129,0.5,"Eastside","neighborhood"
34.4379801253674,-119.737909609134,0,"North State","neighborhood"
34.437856074893,-119.729768247766,0.5,"Samarkand","neighborhood"
34.4118909107214,-119.733973388204,0,"Elings Park","neighborhood"
34.4258213638436,-119.728526823525,0.5,"Westside","neighborhood"
34.434634478738,-119.74290397355,0,"Hitchcock","neighborhood"
32.627060046196,-116.989988365825,0.5,"Otay Ranch Village 1","neighborhood"
32.9943377512217,-117.163948846483,0,"Black Mountain Ranch Village","neighborhood"
32.9546542460167,-117.160344911725,0.5,"Rancho Pe√±asquitos","neighborhood"
32.6307902239323,-116.963576860999,0,"Eastlake Land Swap","neighborhood"
33.0198175773109,-117.114746036987,0,"4S Ranch","neighborhood"
32.9623356499104,-117.15521644129,0,"Torrey Highlands Village","neighborhood"
32.8739150474831,-117.217229746861,0.5,"University City","neighborhood"
32.573674494715,-117.082566711513,0.5,"Nestor","neighborhood"
32.7732008802064,-117.147350430261,0,"Mission Valley East","neighborhood"
32.5860365777899,-117.027536609141,0,"Ocean View Hills","neighborhood"
32.783531287775,-117.150471449649,0.5,"Serra Mesa","neighborhood"
32.7432051934929,-117.253651392248,0.5,"Ocean Beach","neighborhood"
32.8303930056522,-117.156192078902,0,"Kearny Mesa","neighborhood"
32.8138572734047,-117.174269626773,0.5,"Clairemont Mesa East","neighborhood"
32.7420963904376,-117.235337481589,0.5,"Point Loma Heights","neighborhood"
32.9681637926632,-117.155317570632,0,"Torrey Highlands","neighborhood"
32.7308840137595,-117.14641999797,0,"Balboa Park","neighborhood"
33.7873541550346,-118.197227439121,0.5,"Washington","neighborhood"
33.8169163141988,-118.368855916309,0,"Seaside","neighborhood"
33.831760410948,-118.386822891059,0,"South Redondo","neighborhood"
33.8329790392505,-118.371690159106,0,"Southwood","neighborhood"
32.7258318111852,-117.167786914239,0,"Little Italy","neighborhood"
32.7209456625892,-117.157944150247,1,"Cortez Hill","neighborhood"
32.7162643721685,-117.163656771111,0.5,"Core-Columbia","neighborhood"
32.7244233728402,-117.172371277148,0,"Harborview","neighborhood"
32.7120866979942,-117.150745508837,0.5,"East Village","neighborhood"
32.7149365752271,-117.124629826054,1,"Stockton","neighborhood"
32.7538397192866,-117.134500132078,0.5,"North Park","neighborhood"
32.7512310756195,-117.144438957615,0.5,"University Heights","neighborhood"
32.7114598639211,-117.096245937159,1,"Chollas View","neighborhood"
32.91066990124,-117.223004168645,0,"Carmel Valley","neighborhood"
32.7622060053606,-117.120211860848,0.5,"Normal Heights","neighborhood"
32.7324371802048,-117.101460776835,1,"Azalea - Hollywood Park","neighborhood"
32.7468324777057,-117.103578809654,1,"City Heights","neighborhood"
32.5554146920848,-117.049659896394,0.5,"San Ysidro","neighborhood"
32.559992772764,-116.950845195561,0,"Otay Mesa","neighborhood"
33.8529759705665,-118.372996058937,0,"West Torrance","neighborhood"
33.8379899123912,-118.162515414738,0,"Lakewood Mutual","neighborhood"
33.8501767765998,-118.191729357676,0.5,"Addams","neighborhood"
32.7784488410674,-117.220797892349,0,"Mission Bay","neighborhood"
32.8423167953212,-117.276236961232,0,"Village of La Jolla","neighborhood"
33.1955136793982,-117.318319990685,0.5,"Mira Costa","neighborhood"
33.1837507074011,-117.333782270834,0.5,"Fire Mountain","neighborhood"
33.1947485381612,-117.369598118103,0.5,"Townsite","neighborhood"
33.2105839227984,-117.371128457978,0.5,"East Side Capistrano","neighborhood"
33.1733938301846,-117.355341185589,0.5,"South Oceanside","neighborhood"
33.1686929793256,-117.349734117168,0,"Carlsbad Village","neighborhood"
32.9298750690241,-117.118977827325,0.5,"Mira Mesa","neighborhood"
32.7619568387934,-117.250789306458,0.5,"Mission Beach","neighborhood"
33.0560388503904,-117.282372931681,0.5,"Leucadia","neighborhood"
32.8336941831992,-116.945897131894,0,"Sky Ranch","neighborhood"
32.6742283727582,-116.939189759743,0,"Rolling Hills Ranch","neighborhood"
32.6544893668098,-116.956330578591,0,"Eastlake Business Center","neighborhood"
32.9174619876644,-117.186580794096,0,"Sorrento Valley","neighborhood"
32.6424154217527,-116.94972808877,0,"Eastlake Trails","neighborhood"
33.1677231774429,-117.067440639071,0,"Daley Ranch","neighborhood"
33.2163044043702,-117.280672675746,0,"Ivey Ranch / Rancho Del Oro","neighborhood"
33.2214513680655,-117.266613636327,0.5,"Peacock","neighborhood"
32.754285819891,-117.16620289992,0.5,"Hillcrest","neighborhood"
33.0345587745228,-116.859337429083,0.5,"Ramona","neighborhood"
32.6983669432241,-117.157382633404,1,"Barrio Logan","neighborhood"
33.1315487653843,-117.023728623868,0,"San Pasqual Valley","neighborhood"
33.1421507588177,-117.031370626404,0.5,"East Grove","neighborhood"
32.7446546162093,-117.159073888285,1,"Marston Hills","neighborhood"
32.7448910800084,-117.172756359135,0.5,"Middletown","neighborhood"
32.7701495285456,-117.182488481689,0.5,"Morena","neighborhood"
32.9476843224421,-117.255935777914,0,"Del Mar Heights","neighborhood"
33.2260804323777,-117.334142541259,0.5,"San Luis Rey","neighborhood"
32.9290936364993,-117.08250849627,0,"Miramar Ranch North","neighborhood"
32.940067490292,-117.09448844699,0,"Sabre Springs","neighborhood"
33.0055077132114,-117.085206295165,0,"Rancho Bernardo","neighborhood"
32.9746130291939,-117.140431179529,0,"Torrey Brook","neighborhood"
32.7233349291304,-117.255951536455,0,"Sunset Cliffs","neighborhood"
32.7338722661019,-117.225488411846,0,"Roseville - Fleet Ridge","neighborhood"
33.1594950262004,-117.191903793534,0,"Santa Fe Hills","neighborhood"
32.7349344167399,-117.213739946288,0,"Liberty Station","neighborhood"
32.7109823364479,-117.166219636778,0,"Marina","neighborhood"
32.7079291990925,-117.163275697598,1,"Embarcadero","neighborhood"
32.7137207351308,-117.138117495848,0.5,"Golden Hill","neighborhood"
32.6893743749066,-117.11663028335,1,"Southcrest","neighborhood"
33.1167463975703,-117.215805050407,0,"University Commons","neighborhood"
32.7462441494051,-117.204396769536,1,"Midway District","neighborhood"
33.0712955967969,-117.253218036526,0,"Rancho Ponderosa","neighborhood"
33.1483877566863,-117.092582304094,0.5,"North Broadway","neighborhood"
33.1903523396065,-117.087654503792,0,"North Ridge","neighborhood"
34.40234250698,-118.462585183143,0.5,"Newhall","neighborhood"
34.4060992156679,-118.458887912468,0.5,"Canyon Country","neighborhood"
34.4227257937771,-118.550620988828,0.5,"Valencia","neighborhood"
32.7059802451293,-117.069271486369,0.5,"Valencia Park","neighborhood"
32.7275719509238,-117.060663815499,0.5,"Encanto","neighborhood"
32.7562820190468,-117.062003195885,0.5,"Rolando Village","neighborhood"
32.7408209544225,-117.085948561602,0.5,"Chollas Creek","neighborhood"
32.7477217002727,-117.09446062343,0.5,"Fairmount Village","neighborhood"
33.0931106926044,-117.051210582625,0,"East Canyon","neighborhood"
32.68552152762,-117.058983418316,0.5,"Paradise Hills","neighborhood"
32.6525814135673,-116.942757754091,0,"Eastlake Woods","neighborhood"
32.6391488145,-116.939689784016,0,"Eastlake Vistas","neighborhood"
32.6535874695057,-116.968233700457,0,"Eastlake Business Park","neighborhood"
32.6371883428719,-116.962892269049,0,"Eastlake Greens","neighborhood"
33.1218588962532,-117.135893280183,1,"West Ridge","neighborhood"
32.6163106486154,-117.009285073554,0,"Otay Ranch Village West","neighborhood"
33.0236391932466,-117.152615268307,0,"Black Mountain Ranch","neighborhood"
34.0357594746,-118.468021361083,0,"Mid-City","neighborhood"
33.018925187015,-116.808816861899,0,"San Diego Country Estates","neighborhood"
33.1190148305432,-117.04563118161,0.5,"East Valley","neighborhood"
33.2397799031363,-117.283680110496,0,"Guajome","neighborhood"
33.2820690480893,-117.273753338171,0,"Morro Hills","neighborhood"
33.2242657236753,-117.30606120059,1,"Canyon Vista","neighborhood"
32.9641610546031,-117.14487256233,0,"Penasquitos West","neighborhood"
32.8718356657408,-117.199981394846,0,"Nobel Research Park","neighborhood"
32.9625210008223,-117.142330418837,0,"Crestmont","neighborhood"
32.9684467762782,-117.208247127095,0,"North City","neighborhood"
32.7920133913393,-117.109547869437,0.5,"Grantville","neighborhood"
34.1766563838597,-118.294487609461,0.5,"Grandview","neighborhood"
32.667236270682,-116.978339062865,0,"San Miguel Ranch","neighborhood"
32.7968170078849,-117.192862848871,0.5,"Bay Park","neighborhood"
33.8366588608044,-117.98260592053,0.5,"Northwest Anaheim","neighborhood"
36.7659239424603,-119.681347985688,0.5,"McLane","neighborhood"
36.8083924102026,-119.914203528128,0.5,"West Side","neighborhood"
36.9072184422623,-119.762767908571,0,"North Growth Area","neighborhood"
36.7043933445404,-119.634629813249,0,"Southeast Growth Area","neighborhood"
36.7486519325923,-119.794419638715,1,"Lowell","neighborhood"
35.430372035298,-119.034468162124,0.5,"North Country Meadows","neighborhood"
35.419874638017,-119.064743718464,0.5,"Olive Drive area","neighborhood"
35.4454420670858,-119.032731675955,1,"Highland Knolls","neighborhood"
35.416087444993,-119.13663011362,0,"Avalon","neighborhood"
35.3689127150422,-119.216614096978,0,"Rosedale","neighborhood"
35.3585965582502,-119.085812366725,0.5,"Quailwood","neighborhood"
35.3943233315495,-119.012414348436,1,"Homaker Park","neighborhood"
35.3957607072869,-118.976578049184,1,"College Heights","neighborhood"
35.4238007734669,-119.113770402375,0,"Hampton Woods","neighborhood"
35.3798760155601,-119.14997697462,0.5,"Masterpiece Estates","neighborhood"
35.4164992575912,-119.10105145025,0,"Eagle Ranch","neighborhood"
35.40167286275,-119.11443742636,0,"Westlakes","neighborhood"
35.4020140881176,-119.156878972117,0,"Belsera","neighborhood"
35.4154865847074,-119.123252657118,0,"Madison Grove","neighborhood"
35.3991046686129,-119.088371249092,0.5,"Fruitvale","neighborhood"
35.4088437857756,-119.123367274379,0,"Crystal Ranch","neighborhood"
35.3945834591591,-119.132038494881,0,"Emerald Estates","neighborhood"
35.4088409457335,-119.141103273915,0,"Fox Run","neighborhood"
35.4051511923411,-118.89161984845,0,"City in the Hills","neighborhood"
35.3433836043686,-118.945347551955,0,"Tyner Homes","neighborhood"
35.3459250606908,-118.99861776636,1,"Casa Loma","neighborhood"
35.3140495481577,-119.007478858467,1,"Rexland Acres","neighborhood"
35.3195925994625,-119.123439447631,0.5,"Tevis Ranch","neighborhood"
35.3572602003262,-118.939434790771,0.5,"Oakridge","neighborhood"
36.8628403832005,-119.795173106022,0,"The Bluffs","neighborhood"
35.3496896803071,-119.022440491843,1,"Benton Park","neighborhood"
35.3079691234577,-119.083928524001,0.5,"Silver Creek","neighborhood"
35.2881880150021,-119.033821242557,0,"Stone Meadows","neighborhood"
35.2733065042681,-119.034644710709,0,"Castle Ranch","neighborhood"
35.2850527223547,-119.043396119527,0,"Stonegate","neighborhood"
35.3071132803424,-119.101060360164,0,"Campus Park","neighborhood"
35.2705178536766,-119.013547067756,0.5,"Greenfield","neighborhood"
35.3779954374521,-118.941374620673,0.5,"Bakersfield Country Club","neighborhood"
35.4141771445518,-118.851674517331,0,"Tuscany","neighborhood"
35.3584841408486,-119.138308708366,0.5,"Villages of Brimhall/Brimhall Classics","neighborhood"
35.4080517401523,-118.850068324944,0,"Rio Bravo","neighborhood"
35.3578823144864,-119.068892817294,0,"Park Stockdale","neighborhood"
35.3707919847641,-119.169955160484,0,"Shiloh Estates","neighborhood"
35.3216637155442,-119.064736886653,0.5,"Spice Tract","neighborhood"
35.3035234976419,-119.114331352886,0,"Terra Vista","neighborhood"
35.4053500695167,-119.104857531638,0,"San Trope","neighborhood"
35.3585613381797,-119.055622213456,0.5,"West Park Community","neighborhood"
35.333553756224,-119.067653917015,1,"Sagepointe","neighborhood"
35.3426419053753,-119.119966779778,0,"Seven Oaks","neighborhood"
35.3343156583145,-119.101476085676,0,"Haggin Oaks","neighborhood"
35.3829939420286,-118.983153354543,1,"East Bakersfield","neighborhood"
35.3871036381246,-119.118894138458,0,"Polo Grounds","neighborhood"
35.3907445122716,-119.176613796352,0,"Redwood Estates","neighborhood"
35.6151743073837,-117.696721207342,0.5,"Ridgecrest Heights","neighborhood"
35.3580327728328,-119.007244268862,0.5,"Oleander/Sunset","neighborhood"
35.335821732883,-119.018210679859,0.5,"Southgate","neighborhood"
35.2816754283589,-119.119052589852,0,"Park Avenue","neighborhood"
35.3656110727847,-119.120723756241,0,"Fairway Oaks","neighborhood"
35.3870314569617,-118.999428150086,1,"Baker Street","neighborhood"
35.2998445511238,-119.123419963373,0,"Artisan","neighborhood"
35.334409951757,-119.136606299222,0,"Seven Oaks at Grand Island","neighborhood"
35.3571763612449,-119.153995862298,0,"Stockdale West","neighborhood"
35.32211576988,-119.097335416269,0,"The Oaks","neighborhood"
35.4011273149232,-118.998014471641,0.5,"La Cresta/Alta Vista","neighborhood"
37.2959161032198,-121.846972069228,1,"Gardens - Villa Montery","neighborhood"
37.2804109961771,-121.834109756772,0.5,"Seven Trees and Lairon","neighborhood"
37.2388347594205,-121.81083113734,0,"Oak Ridge","neighborhood"
37.3861033152774,-122.046407812882,0,"Sunnyvale West","neighborhood"
37.2429058806422,-121.797092439801,0,"Village Oaks","neighborhood"
37.267384332681,-121.79942239449,0,"Coyote - Fontanelle","neighborhood"
37.3722514464128,-121.865207073748,0,"Commodore","neighborhood"
37.3471191777098,-121.826718545538,0,"Cassell and Foxdale","neighborhood"
37.3270822475213,-121.758506415557,0,"Evergreen Valley High","neighborhood"
37.3215090652507,-121.774240743944,0,"Murillo","neighborhood"
37.3035656119103,-122.00991175952,0,"Joaquin Miller","neighborhood"
37.402979694786,-122.017560444379,0,"Morse Park","neighborhood"
37.3084548646853,-121.92975844392,0.5,"Del Mar","neighborhood"
37.3589222020747,-122.01884725657,0,"Gavello Glen","neighborhood"
37.3414640466514,-122.010835691409,0,"Birdland Neighbors","neighborhood"
37.3001868467917,-121.952212167178,0,"Cadillac Winchester","neighborhood"
37.3626340130886,-122.015946508342,0,"Braly Corners","neighborhood"
37.2746294647852,-121.835447524681,0,"The Woods","neighborhood"
37.3984368383735,-121.955963636571,0,"Rivermark","neighborhood"
37.2274338262036,-121.796233577832,0,"Parma","neighborhood"
37.2772792154636,-121.758611627501,0,"Silver Creek Country Club","neighborhood"
37.3830782116491,-121.851064883369,0,"Penitencia","neighborhood"
37.3795124271691,-121.855194714296,1,"Gilchrist","neighborhood"
37.3683092383494,-121.874632441258,1,"Berryessa Flea Market-BART","neighborhood"
37.391302421678,-122.076832743611,0,"Old Mountain View","neighborhood"
37.3827698565516,-121.831381472909,0,"Golf and Gridley","neighborhood"
37.232900254348,-121.758381930497,0,"Metcalf","neighborhood"
37.2588501281156,-121.801796723332,1,"Roundtable","neighborhood"
37.270457796077,-121.807630308003,0,"Stripe Elementary and Great Oaks","neighborhood"
37.2964105978645,-121.84277948887,0,"Umbarger","neighborhood"
37.3888360634664,-121.835574352586,0,"Toyon","neighborhood"
37.3753396438034,-121.868107301252,0,"Commercial","neighborhood"
37.3508572505458,-121.831723969939,0,"Capitol - Goss","neighborhood"
37.3546910160498,-121.814920109958,0,"Mt. Pleasant North","neighborhood"
37.2715710938318,-121.885455146678,0,"Valley View Reed","neighborhood"
37.2997022802671,-121.927224456705,0,"Southwest","neighborhood"
37.3337915361249,-121.919280180663,0,"Alameda","neighborhood"
37.356670232169,-122.011007390018,0,"Ponderosa Park","neighborhood"
37.3261310611608,-121.87678182191,0.5,"Spartan Keyes","neighborhood"
37.3324448228345,-121.870428935252,0.5,"Naglee","neighborhood"
37.3301771984443,-121.875267745238,1,"South University","neighborhood"
37.3280888877035,-121.882491340568,0.5,"Downtown and SOFA","neighborhood"
37.3364313032741,-121.864510976799,0.5,"Olinder-McKinley","neighborhood"
37.4424443821604,-122.15793078976,0,"University South","neighborhood"
37.33085249055,-121.892190113067,0,"Ballbach and SOFA","neighborhood"
37.2971468382684,-121.957617662123,0,"Cadillac West","neighborhood"
37.2991064875217,-121.956549695887,0,"Lexington Maria","neighborhood"
37.2981435349965,-121.947051077157,0.5,"Castlemont","neighborhood"
37.3126592180545,-121.944351099965,0,"Monroe","neighborhood"
37.3199086148852,-121.944658954554,0,"The Villas","neighborhood"
37.3212279800293,-121.949021071397,0,"Valley Fair","neighborhood"
37.3982688564387,-121.905155784002,0,"Orchard","neighborhood"
37.3134057703381,-121.951722123136,0,"Winchester Lynnhaven","neighborhood"
37.3193938330938,-121.976984052314,0.5,"Loma Linda","neighborhood"
37.3757716436536,-121.879843525238,0,"Notting Hill - Royal Crest","neighborhood"
37.3837743261061,-121.888431941193,0,"Carmine - Parkmont","neighborhood"
37.2982573718708,-121.994172140511,0,"English Estates","neighborhood"
37.3264445232289,-121.835730939542,0.5,"Lanai - Cunningham","neighborhood"
37.3811576404422,-122.030176113977,0,"Heritage District","neighborhood"
37.332441956856,-121.953102261656,0.5,"Winchester","neighborhood"
37.2907192558374,-121.844152579639,1,"Dahl","neighborhood"
37.2868995039946,-121.839182087813,0,"Seven Trees","neighborhood"
37.2773885051683,-121.860496805372,0,"Narvaez","neighborhood"
37.2865564192265,-121.856268094225,0,"Communications Hill","neighborhood"
37.3228116828598,-121.876011382169,1,"Virginia and Martha","neighborhood"
37.2809492226353,-121.875984214319,0,"Farm and Rubino Dr","neighborhood"
37.2799523656406,-121.868625391803,0,"Summer Creek","neighborhood"
37.3112927268844,-121.873900655269,0.5,"Alma","neighborhood"
37.2697789517467,-121.835769665208,0,"Berry Park","neighborhood"
37.3881297848735,-122.020295013422,0,"Snail","neighborhood"
37.3909853032567,-122.009905073447,0,"San Miguel","neighborhood"
37.3477116033281,-122.037231322564,0,"Nimitz","neighborhood"
37.252033982099,-121.944376417062,0,"Good Samaritan","neighborhood"
37.2584101584205,-121.935573258878,0,"Cambrian Park","neighborhood"
37.2025949699033,-121.852452918795,0,"Glen Crest","neighborhood"
37.2157852286525,-121.895041850429,0,"Almaden Guadalupe Park","neighborhood"
37.3745955594973,-122.065623904424,0,"Cuernavaca","neighborhood"
37.2595884167717,-121.863983711993,0,"Tatra","neighborhood"
37.411350041317,-122.101466341678,0,"Monta Loma","neighborhood"
37.2855267013873,-121.879071489203,0,"Canoas Garden","neighborhood"
37.2626263729369,-121.861669447597,0,"Branham","neighborhood"
37.3058104501582,-121.847989876541,1,"Brenning","neighborhood"
37.3619867985235,-122.046284975857,0,"Cumberland South","neighborhood"
37.2546343669579,-121.940287973735,0,"Houge Parker","neighborhood"
37.2609809233389,-121.941944793756,0,"Farnham","neighborhood"
37.1986946209241,-121.841847867897,0,"Almaden Springs","neighborhood"
37.1856409343652,-121.850941127174,0,"Quicksilver","neighborhood"
37.2125747828023,-121.855894039276,0,"Glenview Serenity","neighborhood"
37.4094797409657,-121.937961129254,0,"Tasman and Zanker","neighborhood"
37.3008139112203,-121.850358409938,0,"Fairground","neighborhood"
37.2826366895554,-121.837470324912,0,"Rancho","neighborhood"
37.3692681367471,-121.920441172156,0.5,"Rosemary","neighborhood"
37.3609461334423,-121.912752784559,0,"Rosemary Gardens","neighborhood"
37.3847220345105,-121.920216959159,0,"Trimble Business Area","neighborhood"
37.3042387370167,-121.918504543857,0,"Stokes","neighborhood"
37.3138168607735,-121.908524858666,0,"North Willow Glen","neighborhood"
37.3053943637576,-121.927312351786,0,"Fruitdale and Sherman Oaks","neighborhood"
37.3126888684113,-121.919574680171,0.5,"Rose Glen","neighborhood"
37.414589100988,-121.959705837161,0,"Renaissance","neighborhood"
37.3181773193896,-121.909017859445,0,"O'Connor Park","neighborhood"
37.3236858662076,-121.907832521688,0,"Sunol-Midtown","neighborhood"
37.4216750998975,-122.151496795137,0,"College Terrace","neighborhood"
37.4271589198027,-122.144224750413,0,"Evergreen Park","neighborhood"
37.2733713815634,-121.824071585578,0,"San Ramon","neighborhood"
37.2517006710875,-121.759033409642,0,"Shady Oaks and Basking Ridge","neighborhood"
37.368960282754,-121.82078658849,0.5,"East Hills and White","neighborhood"
37.3148665071448,-121.801297181123,0,"Everydale - Neimen","neighborhood"
37.3611635768454,-121.844128157575,1,"Luz","neighborhood"
37.2755119373846,-121.809615725224,0,"Coyote and Senter","neighborhood"
37.2945729464208,-121.839086591423,1,"Hillsdale","neighborhood"
38.7872772349219,-121.272953670536,0.5,"Stanford","neighborhood"
34.2161367240987,-119.163564356154,0,"West Village","neighborhood"
34.2227960079107,-119.164921081706,0,"Rio Lindo","neighborhood"
34.1585854405024,-119.219790975651,0,"Silver Strand","neighborhood"
34.1587496449079,-119.222991828145,0.5,"Hollywood","neighborhood"
34.1963848350502,-119.184587153625,0.5,"Hobson Park East","neighborhood"
34.1876148750707,-119.216213504742,0,"Via Marina","neighborhood"
34.1946364199214,-119.212964205448,0,"Sea View Estates","neighborhood"
34.1946697573947,-119.203022697577,0,"Sea Air","neighborhood"
34.1882113853995,-119.199373103058,0.5,"Marina West","neighborhood"
34.1926685345341,-119.192003140802,0.5,"Hobson Park West","neighborhood"
34.214026377744,-119.183363147581,0.5,"Carriage Square","neighborhood"
34.1843912441925,-119.18512141162,1,"Kamala Park","neighborhood"
34.1835628349253,-119.19176754081,0,"Bartolo Square North","neighborhood"
34.2313709894279,-119.168074595302,0.5,"El Rio East","neighborhood"
34.1812474473655,-119.231696248073,0,"Channel Islands","neighborhood"
34.1826232200378,-119.174761796541,1,"Cal-Gisler","neighborhood"
34.1493779720272,-119.185199526943,1,"South Winds","neighborhood"
34.1497757105313,-119.175901170132,0.5,"Cypress Gardens","neighborhood"
34.2808077563104,-119.157272062513,0,"West Saticoy","neighborhood"
34.2292446777646,-119.208290806547,0,"Golf Course","neighborhood"
34.213122539658,-119.193398435992,0,"Fremont North","neighborhood"
34.1940136129392,-119.243080392174,0,"Oxnard Shores","neighborhood"
34.1783286034358,-119.188521923016,0,"Bartolo Square South","neighborhood"
34.2229774447604,-119.197768629398,0,"Windsor North River Ridge","neighborhood"
38.7869818710411,-121.373526707501,0,"Westpark","neighborhood"
38.7536830794569,-121.344613953374,0,"Junction West","neighborhood"
37.9096685461633,-122.073930892995,0,"Overlook","neighborhood"
37.9504711060737,-121.686792332503,0,"Penrose","neighborhood"
37.9337413927403,-122.345936085443,0,"Metro Richmore Village","neighborhood"
37.9297073663359,-121.742751952206,0,"Brentwood Lake","neighborhood"
37.9333145706187,-121.730110361507,0,"Apple Hill Estates","neighborhood"
38.00602982173,-122.114104917929,0.5,"Mountain View","neighborhood"
37.9533229859045,-121.738623640367,0,"Brighton Station","neighborhood"
37.9357743471095,-121.684232547364,0,"Yamanaka","neighborhood"
37.948019322564,-122.054449407927,0.5,"Monument Corridor","neighborhood"
37.941766221261,-121.731946519344,0,"Sunrise","neighborhood"
38.0206386241176,-122.267927073795,0,"Victoria by the Bay","neighborhood"
37.8758297109782,-122.076382734185,0.5,"Rossmoor","neighborhood"
37.9474203571087,-121.703370688302,0,"Isola Heights","neighborhood"
37.9270359438617,-121.687891484892,0,"Garin Ranch","neighborhood"
37.9544236947395,-121.72891545191,0.5,"Amber Park","neighborhood"
37.9632581395338,-121.7194429535,0,"Rose Garden","neighborhood"
36.5733955156339,-121.955805660067,0,"Pebble Beach","neighborhood"
36.6030707747107,-121.951530671058,0,"Country Club West","neighborhood"
36.5855647830311,-121.879870058778,0,"La Mesa Village","neighborhood"
33.8354080895429,-117.878279143104,0.5,"Southeast Anaheim","neighborhood"
33.8124209995827,-117.937063797996,0.5,"Hermosa Village","neighborhood"
33.8401119736932,-117.926212349508,0.5,"Downtown Anaheim","neighborhood"
33.6550624411628,-117.930050591271,0.5,"Westside Costa Mesa","neighborhood"
33.6708612710714,-117.924177264498,0.5,"Mesa Verde","neighborhood"
33.6299583291552,-117.824933697943,0,"Turtle Ridge","neighborhood"
33.6398928843458,-117.810996972237,0,"Turtle Rock","neighborhood"
38.5859686611443,-121.484934424875,0.5,"Mansion Flats","neighborhood"
38.5809417132923,-121.480454269146,0,"Boulevard Park","neighborhood"
38.5841275021431,-121.478775461875,0,"New Era Park","neighborhood"
34.045661533619,-118.297001745524,1,"Pico Union","neighborhood"
33.9839390464562,-117.500744021057,0.5,"Mira Loma","neighborhood"
34.0094998129829,-117.474512449358,0.5,"Glen Avon","neighborhood"
38.6394175694302,-121.39395244414,1,"Del Paso Park","neighborhood"
37.9470794253936,-122.353823898995,0.5,"Belding Woods","neighborhood"
33.1972846025178,-117.363263288918,0.5,"Loma Alta","neighborhood"
34.0350002481042,-118.303027478583,0.5,"West Adams","neighborhood"
39.7287051549238,-121.817154758124,1,"Chapmantown","neighborhood"
33.2180455856166,-117.328183539047,1,"Oceana","neighborhood"
34.0550308439418,-118.337574219834,0.5,"Mid-Wilshire","neighborhood"
34.0566210124081,-118.341489849546,0.5,"Miracle Mile","neighborhood"
33.9497262540587,-118.302960005943,0.5,"Gramercy Park","neighborhood"
33.9660405116275,-118.289339770524,1,"South Figueroa Corridor","neighborhood"
34.0014202705849,-118.254308985018,1,"Central Alameda","neighborhood"
34.0754723398554,-118.474470465661,0,"Brentwood","neighborhood"
34.1583529093313,-119.175375205778,0,"Pleasant Valley Estates","neighborhood"
36.7621330798192,-119.811995750275,0.5,"Tower District","neighborhood"
38.6580324754556,-121.368647131538,1,"Landmarks","neighborhood"
33.9979207963751,-118.267483254373,0.5,"South Park","neighborhood"
37.643960066845,-122.47452414422,0,"Westview","neighborhood"
34.0086522918207,-118.290777220008,0.5,"Vermont Harbor","neighborhood"
34.0057158106477,-118.355835797676,0.5,"Baldwin Hills","neighborhood"
33.986537931611,-118.348536945166,0,"View Heights","neighborhood"
34.1042062688217,-117.344935014003,1,"Terrace","neighborhood"
37.9803180683015,-122.311076793811,0,"Hilltop Green","neighborhood"
37.9721760296145,-122.337816882607,0.5,"Fairmede - Hilltop","neighborhood"
33.9409317935453,-117.479405443499,0.5,"La Sierra Acres","neighborhood"
33.9741889258251,-118.388234787233,0.5,"Westchester","neighborhood"
34.1985127408848,-118.219550119707,0,"San Rafael Hills","neighborhood"
34.193273621145,-118.22329609316,0,"Montecito Park","neighborhood"
38.6143173666337,-121.471120718545,1,"Gardenland","neighborhood"
33.6213254680741,-117.87844737392,0,"Newport Center","neighborhood"
33.9661409101426,-118.433910344373,0,"Playa Del Rey","neighborhood"
34.1493738227761,-117.299327274988,1,"Shandin Hills","neighborhood"
34.0768998889451,-117.291263575532,1,"Show Place","neighborhood"
38.7434603754795,-121.286871293673,1,"Cherry Glen","neighborhood"
33.9159334066099,-117.481874770912,0.5,"La Sierra","neighborhood"
33.9200625267971,-118.289296159565,0.5,"Harbor Gateway North","neighborhood"
38.7337431301876,-121.276400432468,0.5,"Cirby Side","neighborhood"
38.7320405756671,-121.263877139266,0,"Meadow Oaks","neighborhood"
34.0720272039877,-118.459338464833,0.5,"Westwood","neighborhood"
33.933888345584,-117.498598458038,0,"La Sierra Hills","neighborhood"
33.9510266704038,-117.464893168414,0.5,"Arlanza","neighborhood"
38.724252174299,-121.266861104618,0,"Cirby Ranch","neighborhood"
38.7261415997401,-121.244098613778,0,"South Cirby","neighborhood"
38.7488667718216,-121.273871666362,1,"Folsom Road","neighborhood"
38.2467559176558,-121.297579719555,1,"Southdale Terrace","neighborhood"
34.040763191627,-118.40100230589,0,"Monte Mar Vista","neighborhood"
38.7343792537201,-121.298003887634,1,"Theiles Manor","neighborhood"
38.7371840933174,-121.321225521066,0,"Hilltop Circle","neighborhood"
38.7458284642156,-121.295180349471,0,"Roseville Heights","neighborhood"
33.9010059340509,-117.461577014875,0.5,"La Sierra South","neighborhood"
34.0437844395848,-118.388836608315,0,"Beverlywood","neighborhood"
33.7450967456688,-118.284149559571,0.5,"Central San Pedro","neighborhood"
38.7552504584385,-121.282958960405,0.5,"Sierra Vista","neighborhood"
34.0373622630289,-118.3826066818,0,"Reynier Village","neighborhood"
34.0344708938118,-118.375205351838,0,"Art District","neighborhood"
34.03838252868,-118.368599350159,0,"Mid City","neighborhood"
33.7504468158075,-118.294284589154,0.5,"Northwest San Pedro","neighborhood"
34.0324334704821,-118.438197548318,0,"Westdale","neighborhood"
37.8151775029814,-122.260954119607,0.5,"Oakland Ave - Harrison St","neighborhood"
33.9974874812465,-118.474187658524,0.5,"Oakwood","neighborhood"
34.2276111843416,-118.250872648406,0.5,"Crescenta Highlands","neighborhood"
37.7926057444894,-122.239000697551,1,"Rancho San Antonio","neighborhood"
37.7829085718803,-122.225140877912,1,"Hawthorne","neighborhood"
34.1813278257846,-118.232343153508,0,"Verdugo Woodlands","neighborhood"
34.2109140084431,-118.260266149769,0,"Verdugo Mountains","neighborhood"
34.4399134167925,-119.696044370643,0,"Riviera","neighborhood"
34.4341974230867,-119.704235863969,0.5,"Lower Riviera","neighborhood"
34.1632438277749,-118.237752622002,0,"Rossmoyne","neighborhood"
38.5450084132459,-121.719383175162,0,"Rose Creek","neighborhood"
34.177295015213,-118.198862240894,0,"Chevy Chase","neighborhood"
34.1545120458452,-118.197276317743,0,"Glenoaks Canyon","neighborhood"
38.5547559225802,-121.74382007288,0.5,"Central Davis","neighborhood"
38.5638723080378,-121.75519402899,0.5,"Covell Park","neighborhood"
38.5659422215706,-121.761364091643,0,"Senda Nueva","neighborhood"
38.5483120067114,-121.736547760744,1,"Old East Davis","neighborhood"
38.5493679878171,-121.730641948081,1,"Davis Manor","neighborhood"
34.2163020345114,-118.623773755405,0,"West Hills","neighborhood"
32.7652618243986,-117.064554977838,0.5,"College East","neighborhood"
32.7223222441516,-117.070923600153,0.5,"Emerald Hills","neighborhood"
32.706577418451,-117.036297301178,0.5,"Skyline","neighborhood"
32.7121096130955,-117.030588183534,0,"Jamacha-Lomita","neighborhood"
32.6910320423757,-117.050919352926,0.5,"Bay Terraces","neighborhood"
37.2470483317235,-121.917790066216,0,"De Voss - Leigh","neighborhood"
37.2793844677442,-121.733737150623,0,"The Villages","neighborhood"
37.3098131811576,-121.974310816534,0,"Blackford","neighborhood"
37.1762510359651,-121.725827409503,0,"Coyote Creek","neighborhood"
34.2555510014568,-118.477804881997,0.5,"North Hills West","neighborhood"
34.2607671074363,-118.587737631673,0.5,"Chatsworth","neighborhood"
34.0735239415613,-118.289657718716,0.5,"Rampart Village","neighborhood"
40.5650471809785,-122.366833333594,1,"Bechelli","neighborhood"
40.5504284334901,-122.364427653895,1,"Greens Way Terrace","neighborhood"
34.1772170076753,-119.157381233801,0,"Lemonwood Eastmont","neighborhood"
34.1703571995725,-119.175258800135,0.5,"Blackstock North","neighborhood"
34.2319225400764,-118.510381379677,0,"Sherwood Forest","neighborhood"
34.230424610633,-118.421086965358,0.5,"Panorama City","neighborhood"
36.0717645532582,-119.077822390968,0.5,"West Porterville","neighborhood"
34.2585777684089,-118.545965158926,0.5,"Porter Ranch","neighborhood"
34.1624150289362,-118.368074387016,0.5,"NoHo Arts District","neighborhood"
34.1569554145349,-118.375489450492,0.5,"West Toluca Lake","neighborhood"
32.7425233983641,-117.090708547507,1,"Islenair","neighborhood"
32.7757602851516,-117.088278161521,0,"College West","neighborhood"
37.712598285906,-122.421072450684,0.5,"Sunnydale","neighborhood"
37.8009414810911,-122.414778390266,0,"Russian Hill","neighborhood"
32.7887222046419,-117.060610332858,0,"Del Cerro","neighborhood"
32.7995251635835,-117.02348046078,0.5,"Lake Murray","neighborhood"
32.7581437165411,-117.083917243623,0.5,"Talmadge","neighborhood"
32.7662877325504,-117.081880774615,0.5,"El Cerrito","neighborhood"
37.9394764169447,-122.366682232792,0.5,"Iron Triangle","neighborhood"
32.5812529192005,-117.047862967201,0.5,"Otay Mesa West","neighborhood"
32.7489880858972,-117.06721064141,0.5,"Redwood Village","neighborhood"
32.8266433676058,-117.22288415834,0,"Bay Ho","neighborhood"
32.8206591688762,-117.194163421017,0,"Clairemont Mesa West","neighborhood"
38.6064678521179,-121.350666971183,1,"Walnut Terrace","neighborhood"
38.5991790063891,-121.359801179151,0,"Arden Oaks Vista","neighborhood"
32.8415278329006,-117.205232974934,0.5,"North Clairemont","neighborhood"
38.590200545818,-121.357900844106,0,"Mariemont","neighborhood"
38.5898787652398,-121.346092533846,0,"Del Dayo Estates","neighborhood"
38.6048324037049,-121.488233836923,1,"American River Parkway","neighborhood"
38.5766265795081,-121.332041849839,0.5,"Larchmont Riviera East","neighborhood"
38.6486632468213,-121.287361393645,0,"Bannister Heights","neighborhood"
38.542434675557,-121.424563747542,0,"Tahoe Park East","neighborhood"
38.6138541904859,-121.359893530867,1,"Hazelwood","neighborhood"
38.6204921716669,-121.359123396767,0,"Parkland Estates","neighborhood"
34.447410472829,-118.529760295653,0,"Saugus","neighborhood"
32.7912409633111,-117.172287558529,0.5,"Linda Vista","neighborhood"
37.9290187692609,-121.717321902885,0,"Woodside Glen","neighborhood"
32.8046995706281,-117.152951856985,0.5,"Birdland","neighborhood"
37.7792097180027,-122.39542310254,0,"China Basin","neighborhood"
37.7665454995878,-122.427599570181,0,"Mission Dolores","neighborhood"
37.764714730559,-122.431302410377,0,"The Castro","neighborhood"
40.5824185629679,-122.345246764273,1,"Woodside Meadows","neighborhood"
34.2034763299442,-119.170616447109,0.5,"La Colonia","neighborhood"
33.9921289251667,-117.471290222933,0,"Pedley","neighborhood"
33.9680882627427,-117.588728111786,0,"Eastvale Downs","neighborhood"
34.1030135969315,-118.187001768356,0.5,"Hermon","neighborhood"
34.1213315376422,-118.24238902575,0.5,"Glassell Park","neighborhood"
32.8277138715991,-117.111495064188,0,"Tierrasanta","neighborhood"
32.9244949366556,-117.039491936483,0,"Sycamore Estates","neighborhood"
32.8018206905034,-117.08365894125,0,"Allied Gardens","neighborhood"
40.4276942835547,-122.243917084928,0.5,"Cascade","neighborhood"
40.5674241047207,-122.341078415234,1,"Country Club Subdivision","neighborhood"
40.6296591758647,-122.414940715114,1,"Buckeye","neighborhood"
40.5832924641593,-122.402803797107,1,"Magnolia","neighborhood"
40.6411212641775,-122.381726240645,0.5,"Oasis","neighborhood"
40.5721500861257,-122.405109295828,1,"Benton","neighborhood"
40.5787496433084,-122.382015175063,1,"Garden Tract","neighborhood"
40.5758459794863,-122.351905539424,0,"Mistletoe","neighborhood"
40.5706045700396,-122.383464707675,0.5,"Parkview","neighborhood"
40.5598259642452,-122.381567303231,0,"Rivella Vista Estates","neighborhood"
40.5397710061179,-122.380640978566,0,"Bonnyview","neighborhood"
40.5395553384881,-122.369170044609,1,"Moline Subdivision","neighborhood"
40.5744763148623,-122.396780427606,1,"Greenwood Heights Subdivision","neighborhood"
32.8995358039922,-117.174957441806,0,"Sorrento Mesa","neighborhood"
40.5409353850458,-122.320649119354,0,"Saratoga","neighborhood"
35.3198584371208,-120.8357905111,0,"Los Osos","neighborhood"
32.8199488699244,-117.253060158321,0,"La Jolla Mesa","neighborhood"
32.8227854951787,-117.245373734552,0,"La Jolla Alta","neighborhood"
32.7253033724153,-117.161074588755,0.5,"Bankers Hill","neighborhood"
32.7042793093159,-117.129214820087,0.5,"Memorial","neighborhood"
33.0705549958287,-117.102325653487,0,"Lake Hodges","neighborhood"
32.7525436062625,-117.111339419836,0.5,"Corridor","neighborhood"
33.0940725548211,-117.10413092279,0.5,"Felicita","neighborhood"
32.7523137101821,-117.101994522502,1,"Teralta West","neighborhood"
34.1326791701383,-118.18696501287,0,"Eagle Rock","neighborhood"
35.2853452767244,-120.658994507109,1,"Mill Street Historic District","neighborhood"
35.2786096842654,-120.666452299231,1,"Downtown Historic District","neighborhood"
35.2797630175725,-120.65608806171,1,"Old Town Historic District","neighborhood"
32.8555215790487,-117.249444955194,0,"La Jolla Shores","neighborhood"
32.8969626301487,-117.252800687868,0,"Torrey Pines","neighborhood"
32.7548552916133,-117.087920336475,1,"Colina Del Sol","neighborhood"
33.1358110036268,-117.110930275236,0.5,"Country Club","neighborhood"
34.0980576250395,-118.23042566407,0.5,"Cypress Park","neighborhood"
34.1020961842714,-118.232906608344,0,"Mount Washington","neighborhood"
32.9662721958559,-117.187525276586,0,"Pacific Highlands Ranch","neighborhood"
34.1512353305207,-118.228629952917,0.5,"Woodbury","neighborhood"
32.7183726999344,-117.243071983507,0,"Wooded Area","neighborhood"
32.6437018698545,-117.046159442505,0,"Terra Nova","neighborhood"
34.0450240302191,-118.519283277141,0,"Pacific Palisades","neighborhood"
34.047614787915,-118.380845427501,0,"Crestview","neighborhood"
32.787455899641,-117.045262606748,0,"San Carlos","neighborhood"
33.8777040429096,-118.376705407571,0,"North Redondo","neighborhood"
35.1558185065944,-120.675802044015,0,"Shell Beach","neighborhood"
33.0831857014851,-117.06519511837,0.5,"Kit Carson","neighborhood"
34.0456345868467,-118.423558686637,0,"Rancho Park","neighborhood"
38.558045276713,-121.775950325552,0,"Aspen","neighborhood"
34.2386448999107,-118.270148342991,0.5,"Tujunga","neighborhood"
32.7617389956955,-117.180144106744,0,"Mission Valley West","neighborhood"
38.9437071118975,-119.981702670355,0.5,"Al Tahoe","neighborhood"
33.8770081686204,-118.338993534792,0.5,"Northwest Torrance","neighborhood"
32.8077722478119,-117.266863518109,0,"Bird Rock","neighborhood"
34.1489393212839,-118.134659289876,0.5,"Playhouse Village","neighborhood"
34.1560347096286,-118.128996084811,0.5,"Catalina Villas","neighborhood"
33.8761397085795,-118.205773415525,1,"College Square","neighborhood"
33.8759052559585,-118.199799955215,0.5,"Freeway Circle","neighborhood"
33.8422636361562,-118.346995297907,0.5,"Delthorne","neighborhood"
33.8354662542769,-118.3396564296,0,"Madrona","neighborhood"
34.1766824764925,-118.488632660933,0,"Woodley","neighborhood"
32.9675902468508,-117.075770787677,0,"Carmel Mountain Ranch","neighborhood"
32.719696686872,-117.089204449764,0.5,"Ridgeview/Webster","neighborhood"
38.4783820374886,-121.383485185896,1,"South Woods","neighborhood"
32.8689649196179,-117.234114762368,0,"La Jolla Village","neighborhood"
34.149336400935,-118.11517927436,0.5,"Mid Central","neighborhood"
34.1143670300906,-118.257492144409,0.5,"Atwater Village","neighborhood"
32.7522747862347,-117.096550288996,1,"Teralta East","neighborhood"
33.7976407403802,-118.36297319308,0,"Valmonte","neighborhood"
32.6882220609763,-117.105229897976,1,"Shelltown","neighborhood"
32.7094935412948,-117.14029650094,0.5,"Sherman Heights","neighborhood"
37.6292509343253,-122.062292486434,0,"Tennyson - Alquire","neighborhood"
33.8373290347695,-118.172814927446,0.5,"Bixby Knolls","neighborhood"
33.8286908902491,-118.129529212722,0,"Old Lakewood City","neighborhood"
33.8166071551648,-118.1014987755,0,"Plaza","neighborhood"
34.0073090447234,-118.39019103235,0.5,"Jefferson","neighborhood"
34.0023430895114,-118.406832786137,0,"Park West","neighborhood"
37.9287424154745,-122.365745734015,0.5,"Santa Fe","neighborhood"
32.9708787359324,-117.027935651124,0,"Old Poway","neighborhood"
32.752803644688,-117.053628792817,0.5,"Rolando Park","neighborhood"
32.7325677220786,-117.098801418566,1,"Swan Canyon","neighborhood"
33.8139740284164,-118.188529995356,0.5,"Memorial Heights","neighborhood"
32.7716219956259,-117.104382685545,0.5,"Kensington","neighborhood"
32.5814737773138,-117.057435529884,0,"Territorio #3","neighborhood"
33.9961720405856,-117.411252204005,0.5,"Rubidoux","neighborhood"
32.746189350148,-117.222043085089,0,"Loma Portal","neighborhood"
33.8224761282474,-118.356907707618,0,"Southwood Riviera","neighborhood"
32.5798210267663,-117.101220021581,0.5,"Egger Highlands","neighborhood"
33.7615713203512,-118.083180397155,0.5,"Leisure World","neighborhood"
32.5861273560689,-117.08033303821,0.5,"Palm City","neighborhood"
36.9582613023287,-121.968919172779,0.5,"Opal Cliffs","neighborhood"
34.1434887749723,-117.3113256234,1,"Muscupiabe","neighborhood"
37.7833450512387,-122.429359025202,0.5,"Western Addition","neighborhood"
38.0155815681616,-122.592297409903,0,"Sleepy Hollow","neighborhood"
37.745064314606,-122.424608379733,0,"Noe Valley","neighborhood"
37.7455357817219,-122.443582006393,0,"Diamond Heights","neighborhood"
37.7362729634551,-122.437461873655,0,"Glen Park","neighborhood"
34.2250938131567,-119.189172664458,0.5,"Sierra Linda","neighborhood"
37.7610330892492,-122.384603600444,0,"Central Waterfront","neighborhood"
38.575712019402,-121.300840339594,1,"Cordova Towne","neighborhood"
38.5832179520644,-121.305170718124,0,"Cordova Towne North","neighborhood"
38.5594207262059,-121.341574817012,0,"Larchmont Countryroads","neighborhood"
38.5497017919195,-121.339977164834,0.5,"Rose Park","neighborhood"
38.5611534295233,-121.374295099636,1,"Glenbrook East","neighborhood"
37.7874638686255,-122.461287111332,0,"Presidio Terrace","neighborhood"
37.78243335136,-122.462037802352,0,"Inner Richmond","neighborhood"
37.7792781671807,-122.50754736542,0,"Vista del Mar","neighborhood"
38.5676500996124,-121.366719456512,0.5,"Larchmont Riviera","neighborhood"
38.5704004457853,-121.345057732923,0,"Sheffield","neighborhood"
37.7231120025402,-122.392677075556,0.5,"Bret Harte","neighborhood"
37.7435882467327,-122.408857030494,0,"Peralta Heights","neighborhood"
37.7423899740445,-122.407164362654,0,"Bernal Heights","neighborhood"
37.7388850056801,-122.422109031914,0,"College Hill","neighborhood"
38.5565502834407,-121.350249518895,0,"Rosemont Square","neighborhood"
38.5560858000461,-121.362376461649,0,"Manlove Estates","neighborhood"
38.5598176148845,-121.355459358929,0,"Rosemont Park","neighborhood"
38.5430427673559,-121.367975954824,0,"Sunrise Homes","neighborhood"
38.5444858901309,-121.353557208591,1,"Westporter","neighborhood"
37.7373757613908,-122.41833172351,0,"Holly Park","neighborhood"
37.7337500838687,-122.424612263702,0,"St. Marys Park","neighborhood"
33.844592864985,-117.869464283758,0.5,"Northeast Anaheim","neighborhood"
37.8241122721335,-122.273102834745,0.5,"Hoover - Foster","neighborhood"
37.8252391622681,-122.280240106558,0.5,"Clawson","neighborhood"
37.8208948294962,-122.281002122873,0.5,"McClymonds","neighborhood"
38.4691660441818,-121.355164815324,0,"Churchill Downs","neighborhood"
37.8698834087474,-122.233634178998,0,"Panoramic Hill","neighborhood"
37.82939465615,-122.190219362966,0,"Piedmont Pines","neighborhood"
37.7641467951573,-122.155206449903,0,"Oak Knoll Golf Links","neighborhood"
37.7546033815364,-122.175813706575,1,"Webster","neighborhood"
37.8372073294407,-122.217048293637,0,"Merriewood","neighborhood"
37.730619564221,-122.423150031742,0,"Mission Terrace","neighborhood"
37.7243221408315,-122.431832358416,0.5,"Excelsior","neighborhood"
37.7128248843931,-122.404948231513,0.5,"Visitacion Valley","neighborhood"
37.7646541659837,-122.45943522352,0,"Inner Sunset","neighborhood"
37.7544421948396,-122.459545336453,0,"Forest Knolls","neighborhood"
37.7600803014947,-122.448915165633,0,"Ashbury Heights","neighborhood"
37.75476530446,-122.466203114831,0,"Golden Gate Heights","neighborhood"
37.9069332652614,-122.106482231242,0,"Springhill","neighborhood"
37.8750691957977,-122.170760267371,0,"Overhill","neighborhood"
37.9657630995771,-122.288849059024,0,"May Valley","neighborhood"
38.4633269918555,-121.376098579369,0,"Nottingham","neighborhood"
38.4693950331231,-121.407948561523,0,"Cambridge South","neighborhood"
38.4723772231767,-121.401255587507,0,"Sunrise Greens","neighborhood"
37.9409205475622,-122.333505345866,0.5,"North & East","neighborhood"
37.7434507892888,-122.459504753428,0.5,"Forest Hill Extension","neighborhood"
37.7394243067448,-122.449913099245,0,"Mount Davidson","neighborhood"
37.7347669661201,-122.444733572806,0,"Miraloma","neighborhood"
37.738337305989,-122.462002972212,0,"Saint Francis Wood","neighborhood"
37.7382490316274,-122.471500008569,0,"Inner Parkside","neighborhood"
37.7335853199912,-122.462634951823,0,"Monterey Heights","neighborhood"
37.7293259847015,-122.464810023414,0,"Mount Davidson Manor","neighborhood"
37.9905918238981,-121.308761018397,0.5,"Pacific","neighborhood"
34.1323673499576,-117.326854620049,1,"Shirrells","neighborhood"
34.0537175129801,-118.285987219522,1,"MacArthur Park","neighborhood"
34.0701813285001,-118.252660604824,0.5,"Echo Park","neighborhood"
33.7735295230164,-118.174173245585,1,"North Alamitos Beach","neighborhood"
34.0929850251395,-118.302559436338,1,"Little Armenia","neighborhood"
34.1148060928094,-118.417019578269,0,"North Beverly Park","neighborhood"
34.1321701843306,-118.174627458153,0,"South Arroyo","neighborhood"
33.7220187347996,-118.299031431055,0.5,"Coastal San Pedro","neighborhood"
37.7765750798498,-122.425456663651,0,"Hayes Valley","neighborhood"
37.7747827572535,-122.439494571478,0,"North of the Panhandle","neighborhood"
37.7739887423484,-122.449438361026,0,"Panhandle","neighborhood"
37.7721580235747,-122.433840244892,0,"Lower Haight","neighborhood"
37.7661812420351,-122.434209726172,0,"Duboce Triangle","neighborhood"
38.7015081416048,-121.351313202092,0,"Ridge Point","neighborhood"
34.1642631704682,-118.123015921704,0,"Bungalow Heaven","neighborhood"
34.1453720268795,-118.244711059926,0.5,"Citrus Grove","neighborhood"
34.1612227849507,-117.324430446206,0,"Hudson","neighborhood"
37.7584262639334,-122.145511573847,0,"Sequoyah","neighborhood"
37.6807278645264,-122.070706909671,0,"Upper B Street","neighborhood"
37.7634132617103,-122.178037833584,0.5,"Arroyo Viejo","neighborhood"
37.5807932086812,-122.059257628368,0,"Lakes and Birds","neighborhood"
38.6385402979166,-121.318717811234,1,"Lincoln Terrace","neighborhood"
34.2621280164563,-118.304850225055,0.5,"Sunland","neighborhood"
37.6689496394756,-122.107736571282,0.5,"Hayward Acres","neighborhood"
37.7166797335539,-122.443396569872,0,"Cayuga Terrace","neighborhood"
37.7139775510271,-122.440684463683,0.5,"Crocker-Amazon","neighborhood"
38.6962623271616,-121.274323547495,0,"Bella Sunrise","neighborhood"
38.4730160955668,-121.307599960199,0,"Wildhawk","neighborhood"
34.1391817469961,-117.287416077723,0.5,"Wilson","neighborhood"
33.7876672815921,-118.144735960633,0.5,"Traffic Circle Area","neighborhood"
38.6484277890219,-121.147943126759,0,"Willow Springs Cluster","neighborhood"
33.7771592104376,-118.199992148153,0.5,"Willmore","neighborhood"
33.9988061740742,-118.392950103326,0,"Blanco - Culver Crest","neighborhood"
37.7478334304435,-122.462399932729,0,"Forest Hill","neighborhood"
33.7880307577398,-118.160056726515,0.5,"Zaferia","neighborhood"
33.8124866442582,-118.095198350245,0,"Rancho Estates","neighborhood"
33.8209655998925,-118.077761830143,0,"El Dorado Park","neighborhood"
33.8570834690725,-118.15827741866,0.5,"Davenport Park","neighborhood"
37.7240284108777,-122.466036125304,0,"Ingleside Terraces","neighborhood"
37.7324676082241,-122.457464445723,0,"Westwood Highlands","neighborhood"
37.7273126484826,-122.455400778513,0,"Westwood Park","neighborhood"
37.7324707960733,-122.437090467684,0,"Sunnyside","neighborhood"
34.063540595929,-118.305365141511,0.5,"Koreatown","neighborhood"
33.8341545553139,-118.324718010416,0.5,"Old Torrance","neighborhood"
37.7329086766502,-122.477595827036,0.5,"Merced Manor","neighborhood"
37.7315061563066,-122.495764048083,0.5,"Lakeshore","neighborhood"
37.7263851154019,-122.479827941133,1,"Stonestown","neighborhood"
37.8023790250738,-122.399456188412,0,"Northern Waterfront","neighborhood"
37.7982063810862,-122.404241773291,0.5,"North Beach","neighborhood"
33.9710031245659,-118.090330260928,0.5,"El Rancho","neighborhood"
33.821448693052,-118.175800651372,0,"California Heights","neighborhood"
34.1578560499073,-119.182051826654,0,"Pleasant Valley Villlage","neighborhood"
37.7108480498984,-122.399738570788,0,"Little Hollywood","neighborhood"
37.7149200596864,-122.389358920159,0.5,"Candlestick Point SRA","neighborhood"
37.8134176219699,-122.281963944693,1,"Ralph Bunche","neighborhood"
37.8033406847468,-122.285664247497,1,"Acorn","neighborhood"
37.7505847928036,-122.156125138201,0,"Toler Heights","neighborhood"
37.7458055406087,-122.151475442028,0,"Foothill Square","neighborhood"
38.2512532039629,-121.320770249105,0,"Fumasi Ranch","neighborhood"
37.7437331669233,-122.156093255773,0,"Las Palmas","neighborhood"
37.7483222076023,-122.163780153091,1,"Cox","neighborhood"
37.5175499888415,-121.976068218737,0,"Blacow","neighborhood"
37.7456538892409,-122.134416376471,0,"Chabot Park","neighborhood"
37.7736663200186,-122.279145841659,0.5,"West Alameda","neighborhood"
37.9769400300953,-121.254718483685,1,"August","neighborhood"
34.0895917445953,-117.867867473803,0.5,"Charter Oak","neighborhood"
38.4597168785015,-121.358572931418,0,"Robbins Village","neighborhood"
37.8059474301256,-122.444884527732,0,"Marina District","neighborhood"
35.3762362175885,-119.132360570025,0,"Country Rose","neighborhood"
35.37381136669,-119.120140887471,0.5,"Greenacres","neighborhood"
35.348587453715,-119.067289578935,1,"Kern City","neighborhood"
37.8031609424339,-122.204089275532,0,"Lincoln Highlands","neighborhood"
37.743040907559,-122.160441119683,0,"Iveywood","neighborhood"
37.7398142772867,-122.158948174904,0,"Durant Manor","neighborhood"
37.7867689559997,-122.199980347592,0.5,"Allendale","neighborhood"
37.8292866419272,-122.262560269468,0.5,"Temescal","neighborhood"
37.8636335357909,-122.252594012865,0.5,"Elmwood","neighborhood"
37.6879047935252,-122.087142435048,0.5,"North Hayward","neighborhood"
37.7384949448197,-122.147693751214,0,"Broadmoor","neighborhood"
37.7343030799747,-122.16024853311,0,"Broadmoor District","neighborhood"
37.7325767824431,-122.165354100123,0,"Farrelly Pond District","neighborhood"
35.3461631559216,-119.082464214473,0,"Olde Stockdale","neighborhood"
35.3384382296206,-119.07668512533,0,"Amberton","neighborhood"
35.351329065839,-119.086534731008,0,"Stockdale Country Club","neighborhood"
37.6616067014626,-122.097565223861,0,"Santa Clara","neighborhood"
37.6626707829934,-122.108461156473,0.5,"Longwood - Winton Grove","neighborhood"
37.5673983642817,-122.032367993186,0,"Cabrillo","neighborhood"
35.3324593148855,-119.0890163151,0,"Laurel Glen","neighborhood"
33.8049180454968,-117.97162122058,0,"La Colonia Independencia","neighborhood"
37.7903121846464,-122.199279471576,0,"Laurel","neighborhood"
35.3838642000815,-119.028500083713,0.5,"Riviera/Westchester","neighborhood"
37.7781862112097,-122.399310623058,0.5,"SoMa","neighborhood"
37.7106575686316,-122.452563113619,0,"Outer Mission","neighborhood"
37.8043470410896,-122.423517875419,0,"Fort Mason","neighborhood"
37.7851510691363,-122.39245609986,0,"Rincon Hill","neighborhood"
37.7994059719643,-122.438259608259,0,"Cow Hollow","neighborhood"
37.7966278559808,-122.435411297029,0,"Union Street","neighborhood"
37.7702825080967,-122.424054488141,0,"Mint Hill","neighborhood"
37.7832081708379,-122.418366155963,1,"Little Saigon","neighborhood"
37.7840527384085,-122.397058365464,0.5,"Yerba Buena","neighborhood"
37.8189556763892,-122.368014745198,1,"Treasure Island","neighborhood"
37.7763256799708,-122.451125341702,0,"Lone Mountain","neighborhood"
37.780358887096,-122.444456299852,0,"Anza Vista","neighborhood"
37.769951635715,-122.451158980001,0,"Haight-Ashbury","neighborhood"
37.7822824886116,-122.408143815512,0.5,"Mid-Market","neighborhood"
37.7987577231372,-122.422400046735,0,"Polk Gulch","neighborhood"
37.7879186714296,-122.430279439841,0,"Japantown","neighborhood"
37.7888065908124,-122.42708407587,0,"Pacific Heights","neighborhood"
37.7881600884445,-122.423750617284,0.5,"Cathedral Hill","neighborhood"
37.7858862723512,-122.448856615726,0,"Laurel Heights","neighborhood"
37.8369407192306,-122.194353251163,0,"Forestland","neighborhood"
37.8120802760391,-122.204900008167,0,"Oakmore","neighborhood"
37.8070340041705,-122.184968487808,0,"Woodminster","neighborhood"
37.7646884051761,-122.171320622297,0.5,"Eastmont","neighborhood"
37.7613156497331,-122.45427454101,0,"Parnassus Heights","neighborhood"
37.7875006199394,-122.433570143865,0,"Lower Pacific Heights","neighborhood"
37.7562386908875,-122.388997498529,0,"Dogpatch","neighborhood"
37.8091024956559,-122.411046510099,0,"Fisherman's Wharf","neighborhood"
37.803628467769,-122.406575904838,0,"Telegraph Hill","neighborhood"
35.4076266265456,-119.096477143681,0,"Riverlakes","neighborhood"
37.7896148344731,-122.397857080779,0,"Financial District","neighborhood"
37.7790854450154,-122.503790278982,0,"Sutro Heights","neighborhood"
37.72665433692,-122.397651957958,0,"Portola Place","neighborhood"
37.7141025249455,-122.178675785796,0.5,"Davis Tract","neighborhood"
37.7021796675063,-122.178762097498,0,"Mulford Gardens","neighborhood"
37.7833322055718,-122.391744235699,0,"South Beach","neighborhood"
37.7652273165684,-122.438648385345,0.5,"Corona Heights","neighborhood"
37.7848222688725,-122.409426937673,1,"Union Square","neighborhood"
37.2449532408147,-121.93346715247,0,"Blossom Crest","neighborhood"
37.2436406403811,-121.909690821186,0,"Lone Hill","neighborhood"
37.2401144445802,-121.918098806093,0,"Noddin and Leigh","neighborhood"
37.2822302424888,-122.025018361569,0,"Golden Triangle","neighborhood"
33.7596113207595,-118.137132607514,0.5,"Belmont Shore","neighborhood"
33.7735257541108,-118.157870668626,0,"Rose Park South","neighborhood"
37.2306147826763,-121.906952373576,0,"Noddin","neighborhood"
33.8719224526487,-118.170846584669,0.5,"Grant","neighborhood"
37.3351178250542,-121.937828513198,0,"Walnut and N Bascom","neighborhood"
38.6698488638368,-121.321600813157,0,"Merrihill North","neighborhood"
37.2339598485018,-121.914608725606,0,"Belwood-Belgatos","neighborhood"
38.6887346911639,-121.339338209503,0.5,"Larchmont Foothills","neighborhood"
34.4498829223709,-119.747530298584,0,"Hope","neighborhood"
38.5995243715777,-121.387616125506,1,"Arden Glen","neighborhood"
41.766195877535,-124.208209009585,1,"Crescent City North","neighborhood"
37.5579784565641,-122.303967074465,0,"Hayward Park","neighborhood"
38.709482811627,-121.367634391574,0,"Antelope Ranch","neighborhood"
38.7143549963781,-121.38666502206,0,"Antelope Springs","neighborhood"
38.7010624512607,-121.360204382624,1,"Kirkland Place","neighborhood"
38.6964714150122,-121.359380158612,1,"Pepperwood","neighborhood"
34.428884666342,-119.704261531656,0,"Upper East","neighborhood"
34.4443793632179,-119.730972631102,0,"East San Roque","neighborhood"
34.4449632336892,-119.736513615605,0,"San Roque","neighborhood"
37.3062477889504,-121.987034820373,0,"Rogers","neighborhood"
37.2997998963507,-121.987260434271,0,"Country Lane","neighborhood"
37.2948154778307,-121.999725106992,0,"Saratoga Creek","neighborhood"
37.3172088033775,-121.98702459212,0,"Strawberry Park","neighborhood"
34.4282911219873,-119.685476895362,0,"Milpas","neighborhood"
34.4255481390638,-119.704032732023,1,"Santa Barbara Downtown","neighborhood"
37.3121228818161,-121.990902610847,0,"Mitty","neighborhood"
37.3196827902568,-121.970170634002,0,"Northlake","neighborhood"
37.3050721770173,-121.959328852434,0,"Eden","neighborhood"
37.2682522475398,-121.87066466334,0,"Thousand Oaks","neighborhood"
37.355291446572,-122.020576691924,0,"Sunnyarts","neighborhood"
38.6487472627124,-121.351336970291,1,"College Oak Estates","neighborhood"
37.2397208419647,-121.835383119649,0,"Shawnee","neighborhood"
37.2307227544039,-121.83531770246,0,"Sakamota","neighborhood"
37.2464300965727,-121.843712462001,0,"Canoas West","neighborhood"
37.2352010256799,-121.845312236368,0,"Hidden Glen South","neighborhood"
37.240083128272,-121.844799879309,0,"Canoas East","neighborhood"
37.3815873876474,-122.10729675998,0,"North Los Altos","neighborhood"
37.7852322286087,-122.218799179322,1,"Peralta Hacienda","neighborhood"
38.6619253714995,-121.314841945669,0,"Lincoln Oaks","neighborhood"
37.4835075651682,-122.222315982137,0.5,"Staumbaugh Heller","neighborhood"
38.7261700816462,-121.38754638733,0,"Antelope Ridge","neighborhood"
38.7240517542046,-121.357984877498,0,"Antelope Oaks","neighborhood"
37.3861381095782,-122.026993408171,0,"Lowlanders","neighborhood"
37.2477286003845,-121.851103615893,0,"Mc Kuen","neighborhood"
37.5257427917665,-121.946562138773,0,"Cameron Hills","neighborhood"
37.2539902970503,-121.808125995112,0,"Magic Sands Mobile Homes","neighborhood"
38.6612305994061,-121.301604135324,0,"Palm Avenue","neighborhood"
38.6585538112388,-121.321838240233,0,"Barrett Meadows","neighborhood"
38.6576699089106,-121.299334087396,0,"San Juan Heights","neighborhood"
38.6523577243861,-121.303375864733,0,"Larchmont Hills","neighborhood"
38.6523352011387,-121.295508287493,0,"Casa Bella Park","neighborhood"
38.6427082940841,-121.296519916172,0,"Glen Estates","neighborhood"
37.4007021618371,-122.067125700902,0,"North Whisman","neighborhood"
37.242422042158,-121.853493330986,0,"Cahalan","neighborhood"
37.2468746613954,-121.87115057811,0,"Westfield Oakridge","neighborhood"
37.3906413927502,-122.055698398231,0,"Whisman Station","neighborhood"
37.4011731539593,-122.077077327574,0,"Jackson Park","neighborhood"
37.2347901835962,-121.896079924323,0,"Almaden Winery","neighborhood"
37.2440859939006,-121.886403279101,0,"Pepper Tree","neighborhood"
37.2638884032171,-121.824833118794,0,"Hayes","neighborhood"
37.4006396410428,-122.084985918728,0,"Rex Manor","neighborhood"
38.6431530118667,-121.30649266749,0,"Mapel Grove","neighborhood"
38.6446970098429,-121.320261788082,0,"Barrett Hills","neighborhood"
38.6607091597399,-121.210272068894,0,"Rollingwood","neighborhood"
38.6580351363203,-121.218200720753,0,"Phoenix Field","neighborhood"
38.6585919525768,-121.230332502515,0,"Palos Verdes Estates","neighborhood"
37.4126975302106,-122.132001523908,0,"Barron Park","neighborhood"
38.6561490391674,-121.256558874556,0,"Rolling Hills Estates","neighborhood"
37.240057255022,-121.897718889637,0,"Dartmouth","neighborhood"
37.2178477221192,-121.861841238063,0,"Trinidad","neighborhood"
37.2567935581661,-121.827279690478,0,"Oak Grove","neighborhood"
37.2598684282409,-121.87126150782,0,"Erikson","neighborhood"
37.2634320736242,-121.855798590016,0,"Gunderson and Vista Park","neighborhood"
37.4227479417021,-122.136378606368,0,"Ventura","neighborhood"
37.4123347683714,-122.121155986637,0,"Charleston Meadow","neighborhood"
38.6963273153963,-121.301704270739,0,"Park Van Maren","neighborhood"
38.6921397782826,-121.303982493426,0,"Garden Gate","neighborhood"
38.7048026336538,-121.257422636776,0,"Woodside Oaks","neighborhood"
37.4315457967521,-122.114600377152,0,"Palo Verde","neighborhood"
37.4195839911172,-122.105074800853,0,"Charleston Gardens","neighborhood"
37.2693670331087,-121.850094655582,0,"Carson and Meadows","neighborhood"
38.6903950892654,-121.295533426603,0,"Stock Ranch Commercial","neighborhood"
37.2736652383926,-121.8445599988,0,"Rosenbaum","neighborhood"
37.3936695480717,-122.093130473565,0,"Shoreline West","neighborhood"
38.6752947649503,-121.280643101728,0,"Larchmont Northridge","neighborhood"
38.6676179906944,-121.280792685409,0,"Eastridge","neighborhood"
37.4153951265842,-122.113499961825,0,"Greenmeadow","neighborhood"
37.4217445112451,-122.117164477732,0,"Fairmeadow","neighborhood"
38.6489201495097,-121.259713856595,0,"Fair Oaks Estates","neighborhood"
37.2259946841932,-121.863963785604,0,"Sunrise Almaden","neighborhood"
37.217525906114,-121.850778089795,0,"Shadow Brook II","neighborhood"
37.2171956927073,-121.875228865086,0,"Castillero and Simonds","neighborhood"
38.7042101094859,-121.304070515476,0,"Almond Terrace","neighborhood"
38.7143357458008,-121.298385734071,0.5,"Grand Oaks","neighborhood"
35.3854493621059,-119.062636478457,0,"South San Lauren","neighborhood"
37.3816569833167,-122.082328479938,0,"Cuesta Park","neighborhood"
37.424588307954,-122.124966971637,0,"St. Claire Gardens","neighborhood"
37.2090371444849,-121.838398381348,0,"Graystone","neighborhood"
37.1996211412647,-121.831129216497,0,"Creekside South","neighborhood"
37.2078336191855,-121.829193015177,0,"Woodside of Almaden","neighborhood"
37.2240832984856,-121.887788527117,0,"Almaden Meadows","neighborhood"
38.46012758338,-121.320636610537,0,"Silver Meadows","neighborhood"
37.3709033226777,-122.09257590039,0,"Blossom Valley","neighborhood"
37.3742293145071,-122.071722441163,0,"Martens-Carmelita","neighborhood"
37.3686789952392,-122.073088356794,0,"Waverly Park","neighborhood"
37.3565962366597,-122.065390130904,0,"South Los Altos","neighborhood"
38.6850145009939,-121.287194556547,0,"Dudley Meadows","neighborhood"
37.4467663326913,-122.134015896293,0,"Duveneck/St. Francis","neighborhood"
37.4421826900787,-122.13565672973,0,"Leland Manor","neighborhood"
37.4423456452371,-122.128962663195,0,"Triple El","neighborhood"
37.2318606703914,-121.889414724074,0,"Redmond","neighborhood"
38.6657607603006,-121.313503128145,0,"Merrihill","neighborhood"
38.6749730979163,-121.295934482169,0,"Shadowood","neighborhood"
37.2260119640155,-121.896237381752,0.5,"Guadalupe","neighborhood"
38.6716284200701,-121.302939668676,1,"Pioneer Oaks","neighborhood"
38.6686775430879,-121.298455600469,0,"Capell Heights","neighborhood"
38.689062904401,-121.267661264432,0,"Tempo","neighborhood"
37.3581913042231,-122.090676429805,0,"Loyola Corners","neighborhood"
37.4518512067155,-122.146179918754,0,"Crescent Park","neighborhood"
38.6969052064102,-121.311298957187,0.5,"Twin Creeks","neighborhood"
37.2255929755867,-121.880299388468,0,"Los Alamitos","neighborhood"
37.2350231937065,-121.878791000493,0,"Guadalupe Oak Grove","neighborhood"
37.2248821897303,-121.871067932563,0,"Holy Spirit","neighborhood"
38.7043155116767,-121.277076619298,1,"El Nido Heights","neighborhood"
38.6635800247205,-121.14764870624,0,"Los Cerros","neighborhood"
38.662828814705,-121.142385645489,0,"Broadstone","neighborhood"
38.6798523621979,-121.314844844023,1,"Greenback Estates","neighborhood"
37.4458940264271,-122.1436564546,0,"Community Center","neighborhood"
37.448970458828,-122.1636340272,0.5,"Downtown North","neighborhood"
38.6755018677295,-121.250598598017,0,"Long Acres Estates","neighborhood"
38.6700827792177,-121.253693130869,0,"Hoffman Gardens","neighborhood"
38.7150092524964,-121.254877307615,0,"Cripple Creek Oaks","neighborhood"
38.7078615178307,-121.24876798244,0,"Oakwood Estates","neighborhood"
37.2722109369723,-121.865606174738,0,"Pinehurst","neighborhood"
38.7119690445316,-121.321418993233,0,"Roseville Pointe","neighborhood"
38.7130142227431,-121.311213318287,0,"Antelope Woods","neighborhood"
37.3383378711091,-122.075803149492,0,"Woodland Acres - The Highlands","neighborhood"
37.5464370693417,-122.314700606376,0,"Beresford Park","neighborhood"
37.4384282262162,-122.149891421424,0,"Old Palo Alto","neighborhood"
37.4667376745934,-122.163997941675,0,"Menlo Oaks","neighborhood"
38.6899244658595,-121.331833823513,0,"Foothill Oaks","neighborhood"
38.6746073361069,-121.321146373215,1,"Shadow Creek North","neighborhood"
34.4352910265102,-119.672095426212,0,"Eucalyptus Hill","neighborhood"
38.6553289865223,-121.160687230709,0,"Prairie Oaks","neighborhood"
38.2437023391216,-121.307816566174,1,"The Vineyards","neighborhood"
38.2582421681744,-121.317374764129,0,"Quail Hollow","neighborhood"
37.4600162921445,-122.166208194932,0,"South of Seminary - Vintage Oaks","neighborhood"
35.3654946088577,-119.098437709665,0,"Pheasant Run","neighborhood"
38.5937965594524,-121.300252748876,0,"Cordova Court","neighborhood"
34.4230795438287,-119.694053033439,0.5,"Laguna","neighborhood"
38.5606447811451,-121.704233939369,0,"Lake Alhambra Estates","neighborhood"
37.4270990592441,-122.207306295364,0,"Sharon Heights","neighborhood"
34.0875249180691,-117.302924779854,1,"Valley College","neighborhood"
37.6626231452472,-122.443253159497,0,"El Camino","neighborhood"
37.6551070292707,-122.428438617324,0,"Orange Park","neighborhood"
38.6184037162918,-121.279139642958,0,"Larchmont Sunriver","neighborhood"
38.5625500595849,-121.37434578459,1,"Glenbrook Garden Homes","neighborhood"
37.2299899068095,-121.770044411673,0,"Los Paseos","neighborhood"
37.2247466920881,-121.77582491648,0,"Chantillery","neighborhood"
38.5393129428202,-121.360605121485,0,"Primrose","neighborhood"
37.2202066219884,-121.767130065981,0,"Avenida Espana","neighborhood"
37.5602293192175,-122.2874024904,0,"East San Mateo","neighborhood"
32.5657319228518,-117.030312930535,0,"Remington Hills","neighborhood"
32.6445297651433,-117.027785592965,0,"Rancho\Del Rey II","neighborhood"
34.0560663180186,-118.252156255733,0.5,"Bunker Hill","neighborhood"
34.0700395749756,-118.273293430577,0.5,"Historic Filipinotown","neighborhood"
34.050263057213,-118.415543805961,0,"Century City","neighborhood"
33.7921008697833,-118.103584004442,0,"Los Altos","neighborhood"
33.7768211379651,-118.190353626365,0.5,"North Pine","neighborhood"
33.7491811126322,-118.12288295858,0,"Peninsula","neighborhood"
33.7633378872459,-118.198405425291,0,"Waterfront","neighborhood"
34.1486730799029,-118.150436147379,0,"Old Pasadena","neighborhood"
34.1596766683397,-118.228988843774,0,"College Hills","neighborhood"
34.1701205672854,-118.296310636219,1,"Grand Central","neighborhood"
34.163020625941,-118.302069996877,0.5,"Riverside Rancho","neighborhood"
33.795327347059,-118.339267594737,0,"Walteria","neighborhood"
34.1476135739972,-117.313115412367,1,"Blair Park","neighborhood"
32.7849388593933,-117.166044274153,1,"West Dunlop Street","neighborhood"
32.7844695373588,-117.130990009404,0,"Mission City","neighborhood"
33.7978473215062,-118.397425829754,0,"Malaga Cove","neighborhood"
37.2531832233994,-121.867285411493,1,"Foxchase and Oakridge","neighborhood"
37.2527285089382,-121.85001118751,0,"Playa del Rey","neighborhood"
37.2437015665286,-121.825340847557,0,"Calero and Oak Ridge","neighborhood"
37.2473011611649,-121.824321760848,0,"Miner","neighborhood"
37.2495983921322,-121.817167595324,0,"Anderson East","neighborhood"
34.4037551258432,-119.70198551201,1,"West Beach","neighborhood"
32.714583627732,-117.237944066428,0,"La Playa","neighborhood"
34.0948691378948,-118.389854790558,0,"The Bird Streets","neighborhood"
37.2321963731983,-121.825790182179,0,"Glider","neighborhood"
37.2350331948962,-121.806639365906,0,"La Colina","neighborhood"
33.7839536111371,-118.306448648595,0,"Harbor Pines","neighborhood"
33.7938543375528,-118.345325467221,1,"Country Hills","neighborhood"
37.2253975753494,-121.784651609477,0,"Martinvale - Vinyard","neighborhood"
37.2250570095103,-121.781112248526,0,"Burning Tree","neighborhood"
36.566957078346,-121.91777591075,0,"Carmel Woods","neighborhood"
36.5512825843317,-121.910438654368,0,"Hatton Fields","neighborhood"
36.5606369681047,-121.918888596047,0,"Northeast Carmel","neighborhood"
36.5513481123359,-121.926993250874,0.5,"Golden Rectangle","neighborhood"
34.3979727459241,-119.718964289483,0,"East Mesa","neighborhood"
34.0968932829762,-118.289376738263,1,"East Hollywood","neighborhood"
33.7034713649455,-118.283054383711,1,"San Pedro","neighborhood"
37.625972968871,-122.098198502285,0.5,"Glen Eden","neighborhood"
34.0920668109329,-118.380184654004,0,"Sunset Strip","neighborhood"
34.0872345668118,-118.397945800306,0,"The Flats","neighborhood"
33.9482399571957,-117.362446868641,0.5,"Victoria","neighborhood"
33.1794998600407,-117.277037687344,0.5,"Lake","neighborhood"
33.9294898309462,-117.381038444364,0,"Hawarden Hills","neighborhood"
33.9690689633356,-117.386919323901,0.5,"Wood Streets","neighborhood"
34.0579468396607,-118.539295033678,0,"Ridgeview Country Estates","neighborhood"
34.423926708059,-119.742976403023,0,"Hidden Valley","neighborhood"
33.7935346962153,-118.202256653772,0.5,"South Wrigley","neighborhood"
33.9568280709105,-117.44518948022,0.5,"Riverside Airport","neighborhood"
33.955316574063,-117.409845834661,0.5,"Magnolia Center","neighborhood"
38.5490798732658,-121.743203051738,1,"Old North Davis","neighborhood"
34.0170797253931,-118.47750134699,0.5,"Pico","neighborhood"
34.0115438277321,-118.479467883471,0.5,"Sunset Park","neighborhood"
33.083423399735,-117.227639577342,0,"La Costa Oaks South","neighborhood"
34.1067881415054,-118.437341376613,0,"Beverly Glen","neighborhood"
34.2167277991198,-118.179436201251,0,"North Arroyo","neighborhood"
33.9345898593501,-117.398403153021,0.5,"Casa Blanca","neighborhood"
34.1703171983455,-118.239150245516,0,"Greenbriar","neighborhood"
37.9492829261496,-122.51832878121,0.5,"Greenbrae","neighborhood"
33.9040405376315,-117.403851386957,0.5,"Arlington Heights","neighborhood"
33.9059684066346,-117.450145732619,0.5,"Arlington South","neighborhood"
37.6365055924749,-121.003614162996,1,"Downtown Modesto","neighborhood"
33.9195874181455,-117.429238659532,0,"Presidential Park","neighborhood"
34.075708359287,-118.209091129197,0.5,"Lincoln Heights","neighborhood"
33.7693078861779,-118.109182081529,0,"University Park Estates","neighborhood"
34.0034626832359,-118.489670020642,0,"Ocean Park","neighborhood"
33.6321535946668,-117.910650484417,0,"East Side Costa Mesa","neighborhood"
33.75736152126,-117.86082783831,1,"Logan","neighborhood"
33.6780009969336,-117.655178589052,0,"Foothill Ranch","neighborhood"
33.6801069341601,-117.636080623421,0,"Portola Hills","neighborhood"
33.6973926169925,-117.774730082319,0.5,"El Camino Real","neighborhood"
33.6900757943035,-117.798844628644,0.5,"Woodbridge","neighborhood"
32.819892882825,-117.262409204976,0,"Muirlands","neighborhood"
33.9429710891804,-117.973618291065,0.5,"Los Nietos","neighborhood"
32.8565283891404,-117.24321112256,0,"La Jolla Heights","neighborhood"
37.9611904778234,-121.998224352144,0,"Canterbury Village","neighborhood"
37.8921382122646,-122.09786749338,0,"Moraga Blvd","neighborhood"
37.8886519466955,-122.064349280016,0,"Saranap","neighborhood"
33.6705879884636,-117.830905887961,0.5,"Rancho San Joaquin","neighborhood"
33.7212952364872,-117.88118359146,0,"Santa Ana Memorial Park","neighborhood"
33.6990012661929,-117.888898058097,0.5,"South Coast Metro","neighborhood"
33.7196587338691,-117.905484837539,0,"Centennial Park","neighborhood"
33.7214771749884,-117.860408856026,0.5,"Delhi","neighborhood"
33.748238323242,-117.858036383201,1,"Lacy","neighborhood"
33.7533871260488,-117.86088386521,1,"French Park","neighborhood"
33.7303125874209,-117.860176778327,0.5,"Madison Park","neighborhood"
33.7414110314964,-117.868689277329,0.5,"Heninger Park","neighborhood"
33.7309039274115,-117.870075820613,0,"Wilshire Square","neighborhood"
33.736904556471,-117.865538494829,0.5,"Pacific Park","neighborhood"
