"tract","county","lat","lng","place_name_short","place_name_long","place_type"
"06085503803","Santa Clara County",37.3836270630294,-121.849716269131,"Penitencia","Penitencia, San Jose, CA, USA","neighborhood"
"06085503804","Santa Clara County",37.3758853366633,-121.844906899513,"Baton Rouge","Baton Rouge, San Jose, CA 95133, USA","neighborhood"
"06085504413","Santa Clara County",37.437317271963,-121.904713313884,"Milpitas","Milpitas, CA 95035, USA","locality"
"06085506305","Santa Clara County",37.3045268453352,-121.971641499166,"Anderson West","Anderson West, San Jose, CA, USA","neighborhood"
"06007002700","Butte County",39.5213217214021,-121.526697334847,"Oroville","Oroville, CA, USA","locality"
"06007001300","Butte County",39.7200030457921,-121.81298205404,"Chico","Chico, CA 95928, USA","postal_code"
"06007003200","Butte County",39.4302143597108,-121.529259668959,"Palermo","Palermo, CA, USA","locality"
"06007003300","Butte County",39.3887875818938,-121.504528264641,"Oroville","Oroville, CA 95966, USA","postal_code"
"06067004202","Sacramento County",38.4884207000321,-121.486281212053,"Meadowview","Meadowview, Sacramento, CA, USA","neighborhood"
"06067004203","Sacramento County",38.4881989315204,-121.4743864509,"Meadowview","Meadowview, Sacramento, CA, USA","neighborhood"
"06067004300","Sacramento County",38.4761508949472,-121.487352224803,"Meadowview","Meadowview, Sacramento, CA, USA","neighborhood"
"06067005505","Sacramento County",38.6033898730693,-121.408350629557,"Sacramento","Sacramento, CA 95825, USA","postal_code"
"06037500500","Los Angeles County",34.0153355248286,-118.084051644935,"El Rancho","El Rancho, Pico Rivera, CA, USA","neighborhood"
"06037122410","Los Angeles County",34.2044832519732,-118.39197396051,"North Hollywood","North Hollywood, CA 91605, USA","postal_code"
"06037123103","Los Angeles County",34.1908717096485,-118.365450038088,"North Hollywood","North Hollywood, CA 91606, USA","postal_code"
"06037120020","Los Angeles County",34.2183874854385,-118.45472914612,"Panorama City","Panorama City, CA 91402, USA","postal_code"
"06037120300","Los Angeles County",34.2152914576351,-118.440840055067,"Panorama City","Panorama City, CA 91402, USA","postal_code"
"06037121210","Los Angeles County",34.2394099749928,-118.404670050368,"Pacoima","Pacoima, Los Angeles, CA, USA","neighborhood"
"06037123410","Los Angeles County",34.1979675280357,-118.421631889448,"Valley Glen","Valley Glen, Los Angeles, CA, USA","neighborhood"
"06037125320","Los Angeles County",34.1666764464393,-118.370194424694,"NoHo Arts District","NoHo Arts District, Los Angeles, CA, USA","neighborhood"
"06037128210","Los Angeles County",34.1835838016235,-118.444345313026,"Sherman Oaks","Sherman Oaks, CA 91401, USA","postal_code"
"06037128220","Los Angeles County",34.1835533521933,-118.435576663477,"Sherman Oaks","Sherman Oaks, CA 91401, USA","postal_code"
"06037123601","Los Angeles County",34.1779468826059,-118.41798112198,"Sherman Oaks","Sherman Oaks, CA 91401, USA","postal_code"
"06037123510","Los Angeles County",34.1951056482366,-118.427504458476,"Van Nuys","Van Nuys, CA 91405, USA","postal_code"
"06037123520","Los Angeles County",34.1887183534352,-118.424694805881,"Sherman Oaks","Sherman Oaks, CA 91401, USA","postal_code"
"06037123700","Los Angeles County",34.1848596422141,-118.409516894035,"North Hollywood","North Hollywood, CA 91606, USA","postal_code"
"06037124102","Los Angeles County",34.175782469671,-118.383398787496,"Valley Village","Valley Village, CA 91601, USA","postal_code"
"06037125310","Los Angeles County",34.1695166327245,-118.366031143362,"NoHo Arts District","NoHo Arts District, Los Angeles, CA, USA","neighborhood"
"06037127210","Los Angeles County",34.2083416294567,-118.459907929796,"Van Nuys","Van Nuys, CA 91405, USA","postal_code"
"06037131020","Los Angeles County",34.1993980595657,-118.539935786024,"Reseda","Reseda, Los Angeles, CA, USA","neighborhood"
"06037482301","Los Angeles County",34.0741044714143,-118.099069686338,"San Gabriel","San Gabriel, CA 91776, USA","postal_code"
"06037482401","Los Angeles County",34.0674668921414,-118.08631992327,"Garvey","Garvey, Rosemead, CA, USA","neighborhood"
"06037482600","Los Angeles County",34.0482815817092,-118.115489581137,"Monterey Park","Monterey Park, CA 91755, USA","postal_code"
"06011000400","Colusa County",39.3088813740419,-122.398504925931,"Williams","Williams, CA 95987, USA","postal_code"
"06021010100","Glenn County",39.7441886530184,-122.182327859913,"Orland","Orland, CA 95963, USA","locality"
"06021010400","Glenn County",39.5214155303528,-122.209853459548,"Willows","Willows, CA 95988, USA","locality"
"06021010501","Glenn County",39.7216662744495,-122.04228703385,"Orland","Orland, CA 95963, USA","postal_code"
"06007000603","Butte County",39.7368943871203,-121.849587669769,"Chico","Chico, CA 95926, USA","postal_code"
"06007000300","Butte County",39.7638858242311,-121.86420179748,"Chico","Chico, CA, USA","locality"
"06007000502","Butte County",39.7297355202326,-121.861723406454,"Chico","Chico, CA 95926, USA","postal_code"
"06007002800","Butte County",39.5075814187614,-121.562280513524,"Oroville","Oroville, CA, USA","locality"
"06007002900","Butte County",39.5191067571483,-121.597999052751,"Thermalito","Thermalito, CA 95965, USA","locality"
"06007001800","Butte County",39.7820164714524,-121.611734183694,"Paradise","Paradise, CA 95969, USA","locality"
"06007002200","Butte County",39.6773805567563,-121.673856077003,"Paradise","Paradise, CA 95969, USA","postal_code"
"06007002500","Butte County",39.5896646192064,-121.541333685265,"Butte Valley","Butte Valley, CA 95965, USA","postal_code"
"06059011601","Orange County",33.8608345846184,-117.928632917342,"Fullerton","Fullerton, CA 92832, USA","postal_code"
"06029000101","Kern County",35.4411823837632,-119.051187882775,"Bakersfield","Bakersfield, CA 93308, USA","postal_code"
"06029001400","Kern County",35.3922700047428,-118.984645883425,"La Cresta/Alta Vista","La Cresta/Alta Vista, Bakersfield, CA 93305, USA","neighborhood"
"06029001600","Kern County",35.3769559048095,-119.01539467209,"Downtown","Downtown, Bakersfield, CA, USA","neighborhood"
"06073016504","San Diego County",32.8134189097365,-116.955872677922,"El Cajon","El Cajon, CA, USA","locality"
"06073020028","San Diego County",33.1418051723577,-117.170097522932,"San Marcos","San Marcos, CA 92069, USA","postal_code"
"06073020029","San Diego County",33.139222251733,-117.189464869733,"San Marcos","San Marcos, CA 92078, USA","postal_code"
"06059062625","Orange County",33.5930993669935,-117.705771782415,"Laguna Beach","Laguna Beach, CA 92653, USA","postal_code"
"06073020213","San Diego County",33.131334708436,-117.078173904769,"Central Escondido","Central Escondido, Escondido, CA, USA","neighborhood"
"06073020214","San Diego County",33.1270113522478,-117.08442431757,"Central Escondido","Central Escondido, Escondido, CA, USA","neighborhood"
"06073020308","San Diego County",33.1374326902956,-117.098026983917,"Central Escondido","Central Escondido, Escondido, CA, USA","neighborhood"
"06073020309","San Diego County",33.1355987843531,-117.109021687395,"Country Club","Country Club, Escondido, CA, USA","neighborhood"
"06001403501","Alameda County",37.8177295242488,-122.260076670529,"Oakland Ave - Harrison St","Oakland Ave - Harrison St, Oakland, CA, USA","neighborhood"
"06007002100","Butte County",39.7593127748563,-121.633662313835,"Paradise","Paradise, CA 95969, USA","locality"
"06007002400","Butte County",39.6719770076303,-121.36145192931,"Berry Creek","Berry Creek, CA 95916, USA","postal_code"
"06031000702","Kings County",36.3489841123697,-119.621971422464,"Hanford","Hanford, CA 93230, USA","postal_code"
"06031001100","Kings County",36.3080538928844,-119.630844059455,"Hanford","Hanford, CA 93230, USA","postal_code"
"06031001200","Kings County",36.2297289651334,-119.622161966275,"Hanford","Hanford, CA 93230, USA","postal_code"
"06031000900","Kings County",36.3332089636877,-119.647304275516,"Hanford","Hanford, CA 93230, USA","locality"
"06031001300","Kings County",36.1023176621679,-119.572904136639,"Corcoran","Corcoran, CA 93212, USA","locality"
"06031001500","Kings County",36.1028673676154,-119.573833145637,"Corcoran","Corcoran, CA 93212, USA","locality"
"06031000200","Kings County",36.3499181782134,-119.848209237476,"Lemoore","Lemoore, CA 93245, USA","postal_code"
"06031000800","Kings County",36.3279955254047,-119.618977730427,"Hanford","Hanford, CA 93230, USA","postal_code"
"06031001701","Kings County",35.9041810014491,-120.081702919026,"Avenal","Avenal, CA 93204, USA","postal_code"
"06031000500","Kings County",36.3278563426717,-119.717890506399,"Armona","Armona, CA, USA","locality"
"06031001002","Kings County",36.3196580204674,-119.667196998256,"Hanford","Hanford, CA 93230, USA","locality"
"06019000501","Fresno County",36.7426789220859,-119.7748389281,"Fresno","Fresno, CA 93721, USA","postal_code"
"06019000502","Fresno County",36.744405854084,-119.781537096594,"Fresno","Fresno, CA 93701, USA","postal_code"
"06019000901","Fresno County",36.7104694553715,-119.804300947743,"Edison","Edison, Fresno, CA, USA","neighborhood"
"06019000902","Fresno County",36.7177688382445,-119.804277213939,"Edison","Edison, Fresno, CA, USA","neighborhood"
"06019001303","Fresno County",36.7250069020145,-119.759148174336,"Fresno","Fresno, CA 93702, USA","postal_code"
"06019001304","Fresno County",36.7250146167003,-119.745534910882,"Fresno","Fresno, CA 93702, USA","postal_code"
"06019001407","Fresno County",36.7322736692277,-119.727375677195,"Fresno","Fresno, CA 93727, USA","postal_code"
"06019001408","Fresno County",36.7252330710969,-119.727668539108,"Fresno","Fresno, CA 93727, USA","postal_code"
"06019001411","Fresno County",36.7433670134226,-119.691173825274,"Fresno","Fresno, CA 93727, USA","postal_code"
"06019002903","Fresno County",36.7395375774256,-119.727308566054,"Fresno","Fresno, CA 93727, USA","postal_code"
"06019002904","Fresno County",36.7468037160382,-119.727284344942,"Fresno","Fresno, CA 93727, USA","postal_code"
"06019002905","Fresno County",36.753965309537,-119.727293853356,"Fresno","Fresno, CA 93727, USA","postal_code"
"06019003003","Fresno County",36.7395012367637,-119.709153463105,"Fresno","Fresno, CA 93727, USA","postal_code"
"06037480011","Los Angeles County",34.1263343826265,-118.075069379417,"East San Gabriel","East San Gabriel, CA 91775, USA","locality"
"06037481712","Los Angeles County",34.0663876225192,-118.111901793499,"Monterey Park","Monterey Park, CA 91755, USA","postal_code"
"06037481713","Los Angeles County",34.067964063756,-118.129157530223,"Monterey Park","Monterey Park, CA 91754, USA","postal_code"
"06037482303","Los Angeles County",34.069109776938,-118.098743981662,"Garvey","Garvey, Rosemead, CA, USA","neighborhood"
"06037482304","Los Angeles County",34.0644297682937,-118.098890772149,"Garvey","Garvey, Rosemead, CA, USA","neighborhood"
"06037221401","Los Angeles County",34.0338859782144,-118.313269420017,"Jefferson Park","Jefferson Park, Los Angeles, CA, USA","neighborhood"
"06037221602","Los Angeles County",34.0384297774727,-118.292102420835,"El Salvador Community Corridor","El Salvador Community Corridor, Los Angeles, CA, USA","neighborhood"
"06037221402","Los Angeles County",34.0384430075732,-118.309047427994,"Los Angeles","Los Angeles, CA 90018, USA","postal_code"
"06037221601","Los Angeles County",34.0348165645375,-118.295926544395,"West Adams","West Adams, Los Angeles, CA, USA","neighborhood"
"06037234502","Los Angeles County",34.0018665320379,-118.324422739224,"Park Mesa Heights","Park Mesa Heights, Los Angeles, CA, USA","neighborhood"
"06037222002","Los Angeles County",34.0218914221917,-118.313278182096,"Los Angeles","Los Angeles, CA 90018, USA","postal_code"
"06037226001","Los Angeles County",34.0244834392135,-118.250274337795,"Los Angeles","Los Angeles, CA 90021, USA","postal_code"
"06037226002","Los Angeles County",34.0326197641465,-118.24776869394,"Los Angeles","Los Angeles, CA 90021, USA","postal_code"
"06037234901","Los Angeles County",33.9817876458492,-118.328660864374,"Park Mesa Heights","Park Mesa Heights, Los Angeles, CA, USA","neighborhood"
"06037234902","Los Angeles County",33.9822575563402,-118.334091859764,"Park Mesa Heights","Park Mesa Heights, Los Angeles, CA, USA","neighborhood"
"06037236203","Los Angeles County",34.0184551842103,-118.346770647444,"Crenshaw","Crenshaw, Los Angeles, CA, USA","neighborhood"
"06037236204","Los Angeles County",34.0147165096622,-118.349189560434,"Baldwin Village","Baldwin Village, Los Angeles, CA, USA","neighborhood"
"06037237101","Los Angeles County",33.9856234274443,-118.291377226626,"Vermont-Slauson","Vermont-Slauson, Los Angeles, CA, USA","neighborhood"
"06037237102","Los Angeles County",33.9857552858213,-118.283723524586,"Vermont-Slauson","Vermont-Slauson, Los Angeles, CA, USA","neighborhood"
"06037237201","Los Angeles County",33.9857256550644,-118.299114927376,"Vermont-Slauson","Vermont-Slauson, Los Angeles, CA, USA","neighborhood"
"06037237202","Los Angeles County",33.9855754724715,-118.310155213658,"Los Angeles","Los Angeles, CA 90047, USA","postal_code"
"06037237401","Los Angeles County",33.9784675417502,-118.294808363883,"Vermont-Slauson","Vermont-Slauson, Los Angeles, CA, USA","neighborhood"
"06037239201","Los Angeles County",33.9857804927202,-118.277169892718,"Los Angeles","Los Angeles, CA 90003, USA","postal_code"
"06037239202","Los Angeles County",33.9856781926377,-118.264976488081,"Firestone Park","Firestone Park, CA 90001, USA","postal_code"
"06037239501","Los Angeles County",33.9729856851594,-118.262892665487,"Firestone Park","Firestone Park, CA 90001, USA","postal_code"
"06037239502","Los Angeles County",33.9693295661102,-118.263044075837,"Los Angeles","Los Angeles, CA 90003, USA","postal_code"
"06037239601","Los Angeles County",33.9728370239493,-118.275297670284,"Los Angeles","Los Angeles, CA 90003, USA","postal_code"
"06037239602","Los Angeles County",33.9694506147225,-118.274902262535,"Los Angeles","Los Angeles, CA 90003, USA","postal_code"
"06037239701","Los Angeles County",33.9660919654182,-118.275263211422,"Los Angeles","Los Angeles, CA 90003, USA","postal_code"
"06037239801","Los Angeles County",33.9660532278994,-118.262931756149,"Firestone Park","Firestone Park, CA 90001, USA","postal_code"
"06037240401","Los Angeles County",33.9499189617574,-118.285711909225,"Vermont Vista","Vermont Vista, Los Angeles, CA, USA","neighborhood"
"06037239702","Los Angeles County",33.9622019836424,-118.275000576963,"Los Angeles","Los Angeles, CA 90003, USA","postal_code"
"06037239802","Los Angeles County",33.9624079359564,-118.262948879062,"Firestone Park","Firestone Park, CA 90001, USA","postal_code"
"06037240402","Los Angeles County",33.9446892611986,-118.285478781827,"Vermont Vista","Vermont Vista, Los Angeles, CA, USA","neighborhood"
"06019003004","Fresno County",36.7467809386736,-119.709158488568,"Fresno","Fresno, CA 93727, USA","postal_code"
"06019003103","Fresno County",36.7976614710448,-119.720394872166,"Clovis","Clovis, CA 93612, USA","postal_code"
"06019002906","Fresno County",36.7613332262318,-119.727278653173,"Fresno","Fresno, CA 93727, USA","postal_code"
"06019003104","Fresno County",36.7809258939483,-119.715753408891,"McLane","McLane, Fresno, CA, USA","neighborhood"
"06019003301","Fresno County",36.7759431951691,-119.7634789739,"Fresno","Fresno, CA 93703, USA","postal_code"
"06019003302","Fresno County",36.7686678309529,-119.763514872443,"Fresno","Fresno, CA 93703, USA","postal_code"
"06019003702","Fresno County",36.7758681592641,-119.82782303792,"Fresno","Fresno, CA 93705, USA","postal_code"
"06019003807","Fresno County",36.7591633447064,-119.853218870064,"Fresno","Fresno, CA 93722, USA","postal_code"
"06019003808","Fresno County",36.7590361269726,-119.871213251846,"Fresno","Fresno, CA 93722, USA","postal_code"
"06019003701","Fresno County",36.7686654039129,-119.825571311979,"Fresno","Fresno, CA 93705, USA","postal_code"
"06019004001","Fresno County",36.7348291821289,-120.078273674271,"Kerman","Kerman, CA 93630, USA","postal_code"
"06019004002","Fresno County",36.7349054235856,-120.042251535613,"Kerman","Kerman, CA 93630, USA","postal_code"
"06037504101","Los Angeles County",33.9099096778649,-118.033316016993,"La Mirada","La Mirada, CA, USA","locality"
"06037530005","Los Angeles County",34.028274288972,-118.111429470838,"Montebello","Montebello, CA, USA","locality"
"06037530204","Los Angeles County",34.0190693583599,-118.128326683331,"Montebello","Montebello, CA, USA","locality"
"06037533402","Los Angeles County",33.9898751288938,-118.195181686543,"Maywood","Maywood, CA 90270, USA","locality"
"06037531603","Los Angeles County",34.029802331556,-118.161513599343,"East Los Angeles","East Los Angeles, CA 90022, USA","postal_code"
"06107004200","Tulare County",35.9645307134481,-119.292187558877,"Pixley","Pixley, CA 93256, USA","locality"
"06107004300","Tulare County",35.8556668215675,-119.31688695396,"Earlimart","Earlimart, CA 93219, USA","postal_code"
"06107000202","Tulare County",36.6023171322286,-119.255627000904,"Orange Cove","Orange Cove, CA 93646, USA","postal_code"
"06107001004","Tulare County",36.3521710817735,-119.295739584874,"Visalia","Visalia, CA, USA","locality"
"06037502802","Los Angeles County",33.9323891580441,-118.067581377975,"Santa Fe Springs","Santa Fe Springs, CA 90670, USA","postal_code"
"06037503104","Los Angeles County",33.920070484028,-118.042546940815,"South Whittier","South Whittier, CA, USA","locality"
"06037531503","Los Angeles County",34.0294089707819,-118.17474395173,"East Los Angeles","East Los Angeles, CA 90022, USA","postal_code"
"06037531504","Los Angeles County",34.0282175143532,-118.167391493342,"East Los Angeles","East Los Angeles, CA 90022, USA","postal_code"
"06037533001","Los Angeles County",33.9802222265793,-118.245550020052,"Firestone Park","Firestone Park, CA 90001, USA","postal_code"
"06037533002","Los Angeles County",33.9774903898797,-118.239148676229,"Firestone Park","Firestone Park, CA 90001, USA","postal_code"
"06037533805","Los Angeles County",33.9744233066555,-118.175135745636,"Bell","Bell, CA, USA","locality"
"06037533806","Los Angeles County",33.9695902089451,-118.170643254577,"Bell","Bell, CA, USA","locality"
"06013336102","Contra Costa County",37.9659371833012,-122.039845174162,"Monument Corridor","Monument Corridor, Concord, CA, USA","neighborhood"
"06029002100","Kern County",35.3604076861584,-118.998532129454,"Lakeview","Lakeview, Bakersfield, CA 93307, USA","neighborhood"
"06029002200","Kern County",35.3613218898879,-118.987915978091,"Lakeview","Lakeview, Bakersfield, CA 93307, USA","neighborhood"
"06029002900","Kern County",35.332284359968,-119.030342279574,"Benton Park","Benton Park, Bakersfield, CA, USA","neighborhood"
"06029003121","Kern County",35.3176683477117,-119.012127389245,"Bakersfield","Bakersfield, CA, USA","locality"
"06029000906","Kern County",35.3796666353474,-118.940656524387,"Bakersfield Country Club","Bakersfield Country Club, Bakersfield, CA 93306, USA","neighborhood"
"06029000907","Kern County",35.3797369352117,-118.922927763174,"Bakersfield","Bakersfield, CA 93306, USA","postal_code"
"06029001500","Kern County",35.3722469906559,-118.989064590197,"Bakersfield","Bakersfield, CA 93305, USA","postal_code"
"06029001801","Kern County",35.3601531992046,-119.049502797748,"West Park Community","West Park Community, Bakersfield, CA, USA","neighborhood"
"06029003900","Kern County",35.5027092621259,-119.178196362714,"Shafter","Shafter, CA, USA","locality"
"06029004301","Kern County",35.5738559049755,-119.350905397361,"Wasco","Wasco, CA 93280, USA","postal_code"
"06029004601","Kern County",35.7830629751147,-119.312321999284,"Delano","Delano, CA, USA","locality"
"06029004901","Kern County",35.7837174327299,-119.246226620339,"Delano","Delano, CA, USA","locality"
"06029006301","Kern County",35.2236271499371,-118.833369973899,"Di Giorgio","Di Giorgio, CA 93203, USA","postal_code"
"06029006401","Kern County",35.2694498000809,-118.911542018654,"Lamont","Lamont, CA 93241, USA","postal_code"
"06029005900","Kern County",35.0533153690633,-118.169440576794,"Mojave","Mojave, CA 93501, USA","locality"
"06029006003","Kern County",35.1395827785992,-118.481691897,"Golden Hills","Golden Hills, CA 93561, USA","locality"
"06029006004","Kern County",35.2691084067968,-118.350887603283,"Caliente","Caliente, CA 93518, USA","postal_code"
"06029000102","Kern County",35.4294349543098,-119.017013446126,"Oildale","Oildale, CA 93308, USA","locality"
"06029000902","Kern County",35.405016049161,-118.963128547006,"Bakersfield","Bakersfield, CA 93306, USA","postal_code"
"06029001102","Kern County",35.3702537680652,-118.940240477246,"Bakersfield","Bakersfield, CA 93306, USA","postal_code"
"06029002500","Kern County",35.3372547810369,-118.992028305913,"Bakersfield","Bakersfield, CA, USA","locality"
"06059087803","Orange County",33.8102449750308,-117.988856484706,"Stanton","Stanton, CA 90680, USA","postal_code"
"06059088104","Orange County",33.7847457345004,-117.991561287049,"Stanton","Stanton, CA 90680, USA","postal_code"
"06059088403","Orange County",33.7888907386665,-117.910579867087,"Anaheim","Anaheim, CA 92802, USA","postal_code"
"06059088602","Orange County",33.774216192133,-117.935046619295,"Garden Grove","Garden Grove, CA 92843, USA","postal_code"
"06059088801","Orange County",33.7711172464035,-117.977359602463,"Garden Grove","Garden Grove, CA 92844, USA","postal_code"
"06059088802","Orange County",33.7655644726918,-117.980424136831,"Garden Grove","Garden Grove, CA 92844, USA","postal_code"
"06059089003","Orange County",33.7633573542182,-117.928990660419,"Garden Grove","Garden Grove, CA 92843, USA","postal_code"
"06059089004","Orange County",33.7524447114376,-117.924571721908,"Riverview West","Riverview West, Santa Ana, CA, USA","neighborhood"
"06059089105","Orange County",33.7507149963188,-117.914758831099,"Santa Anita","Santa Anita, Santa Ana, CA, USA","neighborhood"
"06059099222","Orange County",33.7375675124543,-117.96781310427,"Westminster","Westminster, CA, USA","locality"
"06059099229","Orange County",33.704675225125,-117.937200472803,"Green Valley","Green Valley, Fountain Valley, CA 92708, USA","neighborhood"
"06001405302","Alameda County",37.7985013741668,-122.254249533782,"Merritt","Merritt, Oakland, CA 94606, USA","neighborhood"
"06001405401","Alameda County",37.7965384240126,-122.249456214322,"Clinton","Clinton, Oakland, CA 94606, USA","neighborhood"
"06001406602","Alameda County",37.7964782250749,-122.214307232907,"School","School, Oakland, CA 94602, USA","neighborhood"
"06001405402","Alameda County",37.7933319569827,-122.24610059702,"Clinton","Clinton, Oakland, CA 94606, USA","neighborhood"
"06001405901","Alameda County",37.7877860104397,-122.235770051909,"Rancho San Antonio","Rancho San Antonio, Oakland, CA, USA","neighborhood"
"06001406601","Alameda County",37.7936085267987,-122.20795677043,"Upper Peralta Creek","Upper Peralta Creek, Oakland, CA, USA","neighborhood"
"06001405902","Alameda County",37.7909446699529,-122.24095297873,"Rancho San Antonio","Rancho San Antonio, Oakland, CA, USA","neighborhood"
"06001407101","Alameda County",37.7831287128874,-122.214396511503,"Harrington","Harrington, Oakland, CA 94601, USA","neighborhood"
"06001407102","Alameda County",37.7807762186981,-122.210238357482,"Jefferson","Jefferson, Oakland, CA, USA","neighborhood"
"06001410500","Alameda County",37.8100198401214,-122.28895589002,"Oak Center","Oak Center, Oakland, CA, USA","neighborhood"
"06037432300","Los Angeles County",34.0868193490717,-118.043975428673,"El Monte","El Monte, CA 91731, USA","postal_code"
"06037432401","Los Angeles County",34.0905475046374,-118.022058898837,"El Monte","El Monte, CA 91731, USA","postal_code"
"06037433200","Los Angeles County",34.0678010852027,-118.036789290017,"El Monte","El Monte, CA 91731, USA","postal_code"
"06037575802","Los Angeles County",33.7789620707244,-118.197207035323,"Willmore","Willmore, Long Beach, CA, USA","neighborhood"
"06037183610","Los Angeles County",34.1140024458391,-118.194897401777,"Highland Park","Highland Park, Los Angeles, CA, USA","neighborhood"
"06037575402","Los Angeles County",33.7862264515856,-118.19154380552,"Washington","Washington, Long Beach, CA 90813, USA","neighborhood"
"06037601401","Los Angeles County",33.9590575516947,-118.370060890267,"Inglewood","Inglewood, CA 90301, USA","postal_code"
"06037602004","Los Angeles County",33.9343279754301,-118.330644802283,"Inglewood","Inglewood, CA 90303, USA","postal_code"
"06037602403","Los Angeles County",33.9130742722482,-118.348118334771,"Hawthorne","Hawthorne, CA, USA","locality"
"06037603001","Los Angeles County",33.9011404726342,-118.295713347638,"Gardena","Gardena, CA 90247, USA","postal_code"
"06037402502","Los Angeles County",34.0477051011161,-117.76045086972,"Phillips Ranch","Phillips Ranch, CA 91766, USA","postal_code"
"06037301204","Los Angeles County",34.1614819395524,-118.259744353015,"Verdugo Viejo","Verdugo Viejo, Glendale, CA 91202, USA","neighborhood"
"06073013308","San Diego County",32.591756798473,-117.0490687334,"Chula Vista","Chula Vista, CA 91911, USA","postal_code"
"06073013907","San Diego County",32.7202478843865,-117.002748141955,"La Presa","La Presa, CA, USA","locality"
"06073015701","San Diego County",32.7977008303601,-116.942091764112,"El Cajon","El Cajon, CA, USA","locality"
"06037542502","Los Angeles County",33.8925218203024,-118.226117910304,"Compton","Compton, CA 90220, USA","postal_code"
"06037542601","Los Angeles County",33.905807439484,-118.226597729679,"Compton","Compton, CA 90222, USA","postal_code"
"06037542602","Los Angeles County",33.8996114676847,-118.226299758829,"Compton","Compton, CA 90220, USA","postal_code"
"06037543503","Los Angeles County",33.8316578607163,-118.292428518955,"Torrance","Torrance, CA 90502, USA","postal_code"
"06037554101","Los Angeles County",33.8928106590377,-118.12360123532,"Bellflower","Bellflower, CA 90706, USA","postal_code"
"06037554801","Los Angeles County",33.8768313404308,-118.083263667297,"Artesia","Artesia, CA, USA","locality"
"06075026404","San Francisco County",37.7096498840454,-122.415283799884,"Visitacion Valley","Visitacion Valley, San Francisco, CA 94134, USA","neighborhood"
"06075011100","San Francisco County",37.7907445409897,-122.419075979845,"Polk Gulch","Polk Gulch, San Francisco, CA 94109, USA","neighborhood"
"06075011700","San Francisco County",37.7904674305481,-122.403485723663,"San Francisco","San Francisco, CA 94104, USA","postal_code"
"06073005700","San Diego County",32.7252817966024,-117.162560741777,"Bankers Hill","Bankers Hill, San Diego, CA, USA","neighborhood"
"06073019501","San Diego County",33.2084741713329,-117.249597623853,"Vista","Vista, CA 92083, USA","postal_code"
"06073019805","San Diego County",33.1803560658659,-117.286497994045,"Lake","Lake, Oceanside, CA, USA","neighborhood"
"06073020018","San Diego County",33.1499791774834,-117.206258992492,"San Marcos","San Marcos, CA 92078, USA","postal_code"
"06073020108","San Diego County",33.1371359529093,-117.086792019301,"Central Escondido","Central Escondido, Escondido, CA, USA","neighborhood"
"06073008357","San Diego County",32.916493646955,-117.135325837885,"Mira Mesa","Mira Mesa, San Diego, CA, USA","neighborhood"
"06073009901","San Diego County",32.6886724859165,-117.245739865707,"San Diego","San Diego, CA 92106, USA","postal_code"
"06073012101","San Diego County",32.6651035259476,-117.087857122546,"Lincoln Acres","Lincoln Acres, CA 91950, USA","postal_code"
"06059063605","Orange County",33.6376790224137,-117.92730581861,"Downtown","Downtown, Costa Mesa, CA 92627, USA","neighborhood"
"06059063702","Orange County",33.6468912117987,-117.918480483042,"Costa Mesa","Costa Mesa, CA 92627, USA","postal_code"
"06075017902","San Francisco County",37.8050104111494,-122.372796046448,"San Francisco","San Francisco, CA, USA","locality"
"06075022802","San Francisco County",37.7589153006812,-122.406232221156,"Potrero Hill","Potrero Hill, San Francisco, CA, USA","neighborhood"
"06075022901","San Francisco County",37.7511975639474,-122.413945259915,"Mission District","Mission District, San Francisco, CA, USA","neighborhood"
"06075023003","San Francisco County",37.7326723690655,-122.395826910872,"Silver Terrace","Silver Terrace, San Francisco, CA 94124, USA","neighborhood"
"06075026403","San Francisco County",37.7111894168362,-122.406903265669,"Visitacion Valley","Visitacion Valley, San Francisco, CA 94134, USA","neighborhood"
"06071010415","San Bernardino County",34.151642720168,-116.089061277475,"Twentynine Palms","Twentynine Palms, CA 92277, USA","locality"
"06071011900","San Bernardino County",34.9439911991473,-117.07543256014,"Barstow","Barstow, CA 92311, USA","postal_code"
"06071009710","San Bernardino County",34.4858107244865,-117.198856982554,"Apple Valley","Apple Valley, CA, USA","locality"
"06071010412","San Bernardino County",34.1033746845776,-116.394369548774,"Yucca Valley","Yucca Valley, CA 92284, USA","locality"
"06085512017","Santa Clara County",37.2730776956179,-121.816794002738,"Riverview","Riverview, San Jose, CA 95111, USA","neighborhood"
"06085500902","Santa Clara County",37.3330034953153,-121.879640052894,"SUN","SUN, San Jose, CA 95112, USA","neighborhood"
"06085503305","Santa Clara County",37.3198700564913,-121.814676521347,"San Jose","San Jose, CA 95122, USA","postal_code"
"06085503306","Santa Clara County",37.3314080435209,-121.822134793913,"San Jose","San Jose, CA 95122, USA","postal_code"
"06085504315","Santa Clara County",37.4093269567714,-121.859688131731,"Knights Bridge","Knights Bridge, San Jose, CA 95132, USA","neighborhood"
"06015000102","Del Norte County",41.7604312119406,-124.163518656578,"Bertsch-Oceanview","Bertsch-Oceanview, CA 95531, USA","locality"
"06011000300","Colusa County",39.1067123906658,-122.283187276115,"Williams","Williams, CA 95987, USA","postal_code"
"06011000100","Colusa County",39.0017430724067,-122.011829276719,"Arbuckle","Arbuckle, CA 95912, USA","postal_code"
"06111001302","Ventura County",34.2889391858706,-119.141499970785,"Ventura","Ventura, CA 93004, USA","postal_code"
"06111006100","Ventura County",34.1984452546694,-118.929515943355,"Thousand Oaks","Thousand Oaks, CA 91320, USA","postal_code"
"06073012003","San Diego County",32.680104015904,-117.074446170068,"Lincoln Acres","Lincoln Acres, CA 91950, USA","postal_code"
"06073013203","San Diego County",32.606780438413,-117.064213708636,"Chula Vista","Chula Vista, CA 91911, USA","postal_code"
"06073013204","San Diego County",32.5982824988307,-117.063704934008,"Chula Vista","Chula Vista, CA 91911, USA","postal_code"
"06073013307","San Diego County",32.5988024720331,-117.050296697599,"Chula Vista","Chula Vista, CA 91911, USA","postal_code"
"06067006900","Sacramento County",38.6008901918677,-121.457515428969,"Woodlake","Woodlake, Sacramento, CA 95815, USA","neighborhood"
"06073020210","San Diego County",33.1455819276022,-117.041068893561,"East Grove","East Grove, Escondido, CA 92027, USA","neighborhood"
"06013366001","Contra Costa County",37.9760807245436,-122.345993002986,"San Pablo","San Pablo, CA, USA","locality"
"06013375000","Contra Costa County",37.9402568229558,-122.351821507827,"Belding Woods","Belding Woods, Richmond, CA, USA","neighborhood"
"06013307201","Contra Costa County",38.002614607611,-121.848551585099,"Antioch","Antioch, CA 94509, USA","postal_code"
"06013310000","Contra Costa County",38.0264837559119,-121.891786247681,"Pittsburg","Pittsburg, CA, USA","locality"
"06013313102","Contra Costa County",38.0040446658726,-121.864495219533,"Pittsburg","Pittsburg, CA, USA","locality"
"06013336101","Contra Costa County",37.9667877139909,-122.034523068585,"Monument Corridor","Monument Corridor, Concord, CA, USA","neighborhood"
"06013386000","Contra Costa County",37.9226169872243,-122.315583629591,"El Cerrito","El Cerrito, CA 94530, USA","locality"
"06013305000","Contra Costa County",38.015860462611,-121.830864237851,"Antioch","Antioch, CA 94509, USA","postal_code"
"06013312000","Contra Costa County",38.015234476862,-121.869596686335,"Pittsburg","Pittsburg, CA, USA","locality"
"06013314104","Contra Costa County",38.0232454956103,-121.944367884081,"Bay Point","Bay Point, CA, USA","locality"
"06013307205","Contra Costa County",37.9907558580832,-121.837817771453,"Antioch","Antioch, CA 94509, USA","postal_code"
"06013308001","Contra Costa County",37.9919244868789,-121.796422523773,"Antioch","Antioch, CA 94509, USA","postal_code"
"06013314200","Contra Costa County",38.048043988638,-121.97258949895,"Bay Point","Bay Point, CA, USA","locality"
"06037480901","Los Angeles County",34.0869807006861,-118.140160949274,"Alhambra","Alhambra, CA 91803, USA","postal_code"
"06037481300","Los Angeles County",34.0762772278304,-118.082532612177,"Rosemead","Rosemead, CA, USA","locality"
"06037481603","Los Angeles County",34.0841556114208,-118.120186808991,"Alhambra","Alhambra, CA 91801, USA","postal_code"
"06037481714","Los Angeles County",34.0643059518496,-118.129000809565,"Monterey Park","Monterey Park, CA 91754, USA","postal_code"
"06059110202","Orange County",33.8245775121055,-118.015225796188,"Anaheim","Anaheim, CA 92804, USA","postal_code"
"06059099601","Orange County",33.749641265812,-118.006168907043,"Westminster","Westminster, CA, USA","locality"
"06059099703","Orange County",33.7338095881846,-117.985050215685,"Midway City","Midway City, CA 92655, USA","postal_code"
"06059099904","Orange County",33.7664265460193,-118.002895702137,"Westminster","Westminster, CA, USA","locality"
"06065042406","Riverside County",33.9493608274303,-117.252598982932,"Moreno Valley","Moreno Valley, CA 92557, USA","postal_code"
"06065042407","Riverside County",33.953927083632,-117.239568185703,"Moreno Valley","Moreno Valley, CA 92557, USA","postal_code"
"06065042515","Riverside County",33.9354568352127,-117.24066231485,"Moreno Valley","Moreno Valley, CA 92553, USA","postal_code"
"06065042904","Riverside County",33.8163886689685,-117.266665962247,"Perris","Perris, CA 92570, USA","postal_code"
"06065043003","Riverside County",33.6741550343009,-117.381230927035,"Lake Elsinore","Lake Elsinore, CA, USA","locality"
"06065043308","Riverside County",33.7440140778701,-116.952096738734,"East Hemet","East Hemet, CA, USA","locality"
"06065043312","Riverside County",33.7312673463547,-116.960699003506,"Hemet","Hemet, CA 92543, USA","postal_code"
"06065043405","Riverside County",33.7502799387301,-116.986511731531,"Hemet","Hemet, CA 92543, USA","postal_code"
"06065043701","Riverside County",33.7262705089912,-116.864071276175,"Hemet","Hemet, CA 92544, USA","postal_code"
"06085504504","Santa Clara County",37.4216448495856,-121.89643322467,"Milpitas","Milpitas, CA 95035, USA","locality"
"06037540700","Los Angeles County",33.9254173844488,-118.245382027653,"Los Angeles","Los Angeles, CA 90059, USA","postal_code"
"06037404702","Los Angeles County",34.0707595223476,-117.985022732588,"Baldwin Park","Baldwin Park, CA, USA","locality"
"06037404802","Los Angeles County",34.0726470190451,-117.969010282679,"Baldwin Park","Baldwin Park, CA, USA","locality"
"06037405001","Los Angeles County",34.1031003814654,-117.966544932117,"Baldwin Park","Baldwin Park, CA, USA","locality"
"06037406602","Los Angeles County",34.0542813672952,-117.931895716592,"West Covina","West Covina, CA 91790, USA","postal_code"
"06037407702","Los Angeles County",34.0204811788146,-117.946206514058,"La Puente","La Puente, CA, USA","locality"
"06037123206","Los Angeles County",34.1937074579552,-118.374866549032,"North Hollywood","North Hollywood, CA 91606, USA","postal_code"
"06037123301","Los Angeles County",34.2003103910425,-118.400122545839,"North Hollywood","North Hollywood, CA 91605, USA","postal_code"
"06037534302","Los Angeles County",33.9593594788403,-118.17556644167,"Cudahy","Cudahy, CA 90201, USA","locality"
"06037534802","Los Angeles County",33.9711850269945,-118.221672749467,"Walnut Park","Walnut Park, CA, USA","locality"
"06037534804","Los Angeles County",33.9631931168344,-118.2273156905,"Walnut Park","Walnut Park, CA, USA","locality"
"06073020207","San Diego County",33.1334707980168,-117.053978340032,"Midway","Midway, Escondido, CA, USA","neighborhood"
"06073010004","San Diego County",32.5709004828643,-117.052300802494,"Otay Mesa West","Otay Mesa West, San Diego, CA, USA","neighborhood"
"06073010103","San Diego County",32.5922454160777,-117.100260457749,"Egger Highlands","Egger Highlands, San Diego, CA, USA","neighborhood"
"06039000109","Madera County",37.1846690212344,-119.88268141689,"Raymond","Raymond, CA 93653, USA","postal_code"
"06039000201","Madera County",37.0986995650292,-120.143128453852,"Chowchilla","Chowchilla, CA 93610, USA","postal_code"
"06039000603","Madera County",36.9793126604562,-120.049732742331,"Madera","Madera, CA, USA","locality"
"06039000604","Madera County",36.9796338886944,-120.064328620479,"Madera","Madera, CA, USA","locality"
"06041112201","Marin County",37.9662680200354,-122.504865194266,"San Anselmo","San Anselmo, CA 94901, USA","postal_code"
"06041112202","Marin County",37.9573142975227,-122.49264448307,"San Anselmo","San Anselmo, CA 94901, USA","postal_code"
"06037128102","Los Angeles County",34.1902959693021,-118.444350561502,"Sherman Oaks","Sherman Oaks, CA 91401, USA","postal_code"
"06037128601","Los Angeles County",34.1784584168728,-118.441082083715,"Sherman Oaks","Sherman Oaks, CA 91401, USA","postal_code"
"06037131701","Los Angeles County",34.2046643686242,-118.557890647131,"Reseda","Reseda, Los Angeles, CA, USA","neighborhood"
"06037131702","Los Angeles County",34.2046935685732,-118.548732075211,"Reseda","Reseda, Los Angeles, CA, USA","neighborhood"
"06037132001","Los Angeles County",34.1920691761713,-118.514195028922,"Lake Balboa","Lake Balboa, Los Angeles, CA, USA","neighborhood"
"06037132002","Los Angeles County",34.1948952625816,-118.507196222893,"Lake Balboa","Lake Balboa, Los Angeles, CA, USA","neighborhood"
"06037132102","Los Angeles County",34.2020957642019,-118.497369113243,"Lake Balboa","Lake Balboa, Los Angeles, CA, USA","neighborhood"
"06037302201","Los Angeles County",34.1444790241123,-118.248445409686,"Downtown","Downtown, Glendale, CA, USA","neighborhood"
"06037190301","Los Angeles County",34.1037945239085,-118.315197003967,"Hollywood","Hollywood, CA 90028, USA","postal_code"
"06037197420","Los Angeles County",34.0832000637342,-118.25718552762,"Echo Park","Echo Park, Los Angeles, CA, USA","neighborhood"
"06037205110","Los Angeles County",34.0245058909281,-118.214298604203,"Commerce","Commerce, CA 90023, USA","postal_code"
"06037208000","Los Angeles County",34.0625685166375,-118.256063085494,"Westlake","Westlake, Los Angeles, CA, USA","neighborhood"
"06037209401","Los Angeles County",34.056721201453,-118.281524752946,"MacArthur Park","MacArthur Park, Los Angeles, CA, USA","neighborhood"
"06073010107","San Diego County",32.5837594501044,-117.078717526466,"Palm City","Palm City, San Diego, CA, USA","neighborhood"
"06073013000","San Diego County",32.6248442180914,-117.07981632668,"Chula Vista","Chula Vista, CA 91910, USA","postal_code"
"06037402303","Los Angeles County",34.0671263712333,-117.755907644949,"Pomona","Pomona, CA 91768, USA","postal_code"
"06037402304","Los Angeles County",34.0617067200781,-117.765805984592,"Pomona","Pomona, CA 91768, USA","postal_code"
"06037402405","Los Angeles County",34.0671410795029,-117.792946476918,"Pomona","Pomona, CA 91768, USA","postal_code"
"06037402406","Los Angeles County",34.067042383961,-117.782783677153,"Pomona","Pomona, CA 91768, USA","postal_code"
"06037402803","Los Angeles County",34.0478488600144,-117.745305108729,"Phillips Ranch","Phillips Ranch, CA 91766, USA","postal_code"
"06037402804","Los Angeles County",34.0483606990544,-117.732241453001,"Phillips Ranch","Phillips Ranch, CA 91766, USA","postal_code"
"06037402903","Los Angeles County",34.0393940569228,-117.733543214483,"Phillips Ranch","Phillips Ranch, CA 91766, USA","postal_code"
"06037404201","Los Angeles County",34.1265874061855,-117.895311788255,"Azusa","Azusa, CA, USA","locality"
"06037404504","Los Angeles County",34.1104925149513,-117.903340380676,"Irwindale","Irwindale, CA 91702, USA","postal_code"
"06037405301","Los Angeles County",34.0876846353804,-117.941237010738,"Vincent","Vincent, CA, USA","locality"
"06045010600","Mendocino County",39.4536909403607,-123.364740048344,"Willits","Willits, CA 95490, USA","postal_code"
"06045010900","Mendocino County",39.2437819253734,-123.351854495691,"Ukiah","Ukiah, CA 95482, USA","postal_code"
"06045010700","Mendocino County",39.4189699102264,-123.364229878191,"Willits","Willits, CA 95490, USA","postal_code"
"06045010802","Mendocino County",39.3579820548526,-123.091404606682,"Potter Valley","Potter Valley, CA 95469, USA","postal_code"
"06045011300","Mendocino County",39.1041308599709,-123.293026917682,"Ukiah","Ukiah, CA 95482, USA","postal_code"
"06045010100","Mendocino County",39.7584747585554,-123.149991182,"Covelo","Covelo, CA 95428, USA","postal_code"
"06045010200","Mendocino County",39.7867758988002,-123.642726111495,"Laytonville","Laytonville, CA 95454, USA","postal_code"
"06085504202","Santa Clara County",37.376432810742,-121.792214883105,"San Jose","San Jose, CA 95127, USA","postal_code"
"06085503211","Santa Clara County",37.3118522313946,-121.832361793823,"Stonegate East","Stonegate East, San Jose, CA, USA","neighborhood"
"06085504320","Santa Clara County",37.4027856154752,-121.871450284516,"Cataldi","Cataldi, San Jose, CA 95132, USA","neighborhood"
"06085512603","Santa Clara County",37.0017263908817,-121.562670124275,"Gilroy","Gilroy, CA 95020, USA","locality"
"06067003800","Sacramento County",38.5073147589379,-121.493170501324,"Airport","Airport, Sacramento, CA 95822, USA","neighborhood"
"06067004100","Sacramento County",38.5066197861295,-121.47852299517,"Woodbine","Woodbine, Sacramento, CA, USA","neighborhood"
"06067004601","Sacramento County",38.517183214227,-121.447187872833,"Cloverdale","Cloverdale, Parkway-South Sacramento, CA 95824, USA","neighborhood"
"06067004802","Sacramento County",38.4995503796352,-121.419044589506,"Lindale","Lindale, Sacramento, CA 95828, USA","neighborhood"
"06067004904","Sacramento County",38.4880638970155,-121.446463038694,"Sacramento","Sacramento, CA 95823, USA","postal_code"
"06067005502","Sacramento County",38.6046273445713,-121.427002799651,"Swanston Estates","Swanston Estates, Sacramento, CA, USA","neighborhood"
"06073010010","San Diego County",32.5783698075183,-117.06369654791,"Otay Mesa West","Otay Mesa West, San Diego, CA, USA","neighborhood"
"06073010106","San Diego County",32.5717846017822,-117.072317834158,"Otay Mesa West","Otay Mesa West, San Diego, CA, USA","neighborhood"
"06073010300","San Diego County",32.5756380925012,-117.114463509835,"Imperial Beach","Imperial Beach, CA, USA","locality"
"06073010402","San Diego County",32.5727795766451,-117.105774558943,"Imperial Beach","Imperial Beach, CA, USA","locality"
"06073008352","San Diego County",32.9272106597788,-117.138143732078,"Mira Mesa","Mira Mesa, San Diego, CA, USA","neighborhood"
"06073004800","San Diego County",32.7084559786872,-117.13814008815,"Grant Hill","Grant Hill, San Diego, CA 92102, USA","neighborhood"
"06073006600","San Diego County",32.7456169718396,-117.206168398194,"Midway District","Midway District, San Diego, CA 92110, USA","neighborhood"
"06073020903","San Diego County",33.2595990695803,-116.705571004498,"Santa Ysabel","Santa Ysabel, CA 92070, USA","postal_code"
"06073021000","San Diego County",33.1171130854841,-116.290308305643,"San Diego County","San Diego County, CA, USA","administrative_area_level_2"
"06053011102","Monterey County",36.4651340605484,-121.292788004239,"Soledad","Soledad, CA 93960, USA","postal_code"
"06053011202","Monterey County",36.3302595813772,-121.239679736959,"Greenfield","Greenfield, CA 93927, USA","locality"
"06053010605","Monterey County",36.6886905637568,-121.599173833995,"Salinas","Salinas, CA 93905, USA","postal_code"
"06053011101","Monterey County",36.3458864202844,-121.453015568931,"Soledad","Soledad, CA 93960, USA","postal_code"
"06053001700","Monterey County",36.6783431628331,-121.668666440146,"Salinas","Salinas, CA 93901, USA","postal_code"
"06053000800","Monterey County",36.6748896799074,-121.614689728311,"Salinas","Salinas, CA 93905, USA","postal_code"
"06075010800","San Francisco County",37.79649839243,-122.41429140564,"Russian Hill","Russian Hill, San Francisco, CA, USA","neighborhood"
"06037701100","Los Angeles County",34.0575853093711,-118.457006096772,"Los Angeles","Los Angeles, CA 90049, USA","postal_code"
"06037195802","Los Angeles County",34.0756705024345,-118.277695942831,"Historic Filipinotown","Historic Filipinotown, Los Angeles, CA, USA","neighborhood"
"06037191120","Los Angeles County",34.0929287289116,-118.304794015463,"Little Armenia","Little Armenia, Los Angeles, CA, USA","neighborhood"
"06037191410","Los Angeles County",34.088762057761,-118.288116863478,"Los Angeles","Los Angeles, CA 90029, USA","postal_code"
"06037197700","Los Angeles County",34.0685435444784,-118.245775422845,"Los Angeles","Los Angeles, CA 90012, USA","postal_code"
"06037199000","Los Angeles County",34.0801368806463,-118.219407394689,"Lincoln Heights","Lincoln Heights, Los Angeles, CA, USA","neighborhood"
"06037199700","Los Angeles County",34.0675902939189,-118.220219836638,"Chinatown","Chinatown, Los Angeles, CA, USA","neighborhood"
"06037201402","Los Angeles County",34.0689106908297,-118.187768105649,"Los Angeles","Los Angeles, CA 90032, USA","postal_code"
"06037203900","Los Angeles County",34.0333782315016,-118.194484335165,"Hazard","Hazard, CA 90063, USA","postal_code"
"06037552800","Los Angeles County",33.898477098692,-118.091191955903,"Norwalk","Norwalk, CA, USA","locality"
"06037553300","Los Angeles County",33.9043768354048,-118.139281271046,"Bellflower","Bellflower, CA 90706, USA","postal_code"
"06037553601","Los Angeles County",33.904663713655,-118.169223186624,"Paramount","Paramount, CA 90723, USA","postal_code"
"06037122120","Los Angeles County",34.2107756229055,-118.371909420909,"Sun Valley","Sun Valley, Los Angeles, CA, USA","neighborhood"
"06037123010","Los Angeles County",34.2027436816988,-118.374571674337,"Sun Valley","Sun Valley, CA 91352, USA","postal_code"
"06037134305","Los Angeles County",34.2176340225493,-118.601695244845,"Canoga Park","Canoga Park, Los Angeles, CA, USA","neighborhood"
"06037134710","Los Angeles County",34.2046306844964,-118.579146875173,"Winnetka","Winnetka, CA 91306, USA","postal_code"
"06037402702","Los Angeles County",34.0635395367867,-117.727903600373,"Pomona","Pomona, CA 91767, USA","postal_code"
"06037701902","Los Angeles County",34.0127684611821,-118.494952426736,"Santa Monica","Santa Monica, CA 90401, USA","postal_code"
"06037575201","Los Angeles County",33.7864873413251,-118.176794848804,"Whittier","Whittier, Long Beach, CA, USA","neighborhood"
"06037575300","Los Angeles County",33.7862258105094,-118.185026350115,"Poly High","Poly High, Long Beach, CA, USA","neighborhood"
"06037575401","Los Angeles County",33.78627309845,-118.199671675459,"Washington","Washington, Long Beach, CA 90813, USA","neighborhood"
"06037575500","Los Angeles County",33.786513041767,-118.214966782062,"Lower West Side","Lower West Side, Long Beach, CA, USA","neighborhood"
"06087110300","Santa Cruz County",36.9114441174304,-121.755168582276,"Watsonville","Watsonville, CA, USA","locality"
"06087110100","Santa Cruz County",36.922485735568,-121.741556612391,"Watsonville","Watsonville, CA, USA","locality"
"06105000400","Trinity County",40.1819503036785,-123.286667271323,"Mad River","Mad River, CA 95552, USA","postal_code"
"06105000300","Trinity County",40.536456523749,-123.259273090962,"Hayfork","Hayfork, CA, USA","locality"
"06037206010","Los Angeles County",34.0688218897667,-118.231222290602,"Chinatown","Chinatown, Los Angeles, CA, USA","neighborhood"
"06111003201","Ventura County",34.2034677578495,-119.172908396666,"La Colonia","La Colonia, Oxnard, CA 93030, USA","neighborhood"
"06111003700","Ventura County",34.1819817816441,-119.191282674318,"Bartolo Square North","Bartolo Square North, Oxnard, CA, USA","neighborhood"
"06111003900","Ventura County",34.1789020854914,-119.170822784117,"Cal-Gisler","Cal-Gisler, Oxnard, CA, USA","neighborhood"
"06111007800","Ventura County",34.2691578854725,-118.770739851171,"Simi Valley","Simi Valley, CA 93065, USA","postal_code"
"06071010011","San Bernardino County",34.4610779727045,-117.298504053772,"Hesperia","Hesperia, CA, USA","locality"
"06037535200","Los Angeles County",33.9512594558305,-118.250891884149,"Watts","Watts, CA 90002, USA","postal_code"
"06037535300","Los Angeles County",33.9615844522027,-118.236136183829,"Firestone Park","Firestone Park, CA 90001, USA","postal_code"
"06037535702","Los Angeles County",33.9542812782684,-118.205028352333,"South Gate","South Gate, CA 90280, USA","postal_code"
"06037535803","Los Angeles County",33.9480872731859,-118.21006181356,"South Gate","South Gate, CA 90280, USA","postal_code"
"06037535901","Los Angeles County",33.9462080978914,-118.194008040436,"South Gate","South Gate, CA 90280, USA","postal_code"
"06037541603","Los Angeles County",33.9139763023011,-118.220700311073,"Compton","Compton, CA 90222, USA","postal_code"
"06037541604","Los Angeles County",33.9078664646655,-118.211896430038,"East Compton","East Compton, CA 90221, USA","postal_code"
"06037542501","Los Angeles County",33.8922330384948,-118.236569527498,"Compton","Compton, CA 90220, USA","postal_code"
"06037543502","Los Angeles County",33.8417412034172,-118.293690681773,"Torrance","Torrance, CA 90502, USA","postal_code"
"06037552200","Los Angeles County",33.9088662257987,-118.074032468773,"Norwalk","Norwalk, CA, USA","locality"
"06073013206","San Diego County",32.5991878583475,-117.072250378308,"Chula Vista","Chula Vista, CA 91911, USA","postal_code"
"06037294200","Los Angeles County",33.7948377272636,-118.26938924113,"Wilmington","Wilmington, CA 90744, USA","postal_code"
"06037294510","Los Angeles County",33.7865877633662,-118.271694013912,"Wilmington","Wilmington, CA 90744, USA","postal_code"
"06037301701","Los Angeles County",34.1584395026305,-118.273665765437,"Pelanconi","Pelanconi, Glendale, CA, USA","neighborhood"
"06037302104","Los Angeles County",34.1454079994408,-118.232086492608,"Citrus Grove","Citrus Grove, Glendale, CA, USA","neighborhood"
"06037480902","Los Angeles County",34.0802793150529,-118.139020746538,"Alhambra","Alhambra, CA 91803, USA","postal_code"
"06037480903","Los Angeles County",34.0736605778103,-118.139349033958,"Alhambra","Alhambra, CA 91803, USA","postal_code"
"06037481002","Los Angeles County",34.0951879190791,-118.118974008938,"Alhambra","Alhambra, CA 91801, USA","postal_code"
"06037481102","Los Angeles County",34.0998400580135,-118.094461742558,"San Gabriel","San Gabriel, CA 91776, USA","postal_code"
"06111000200","Ventura County",34.4158090197256,-118.76293677544,"Fillmore","Fillmore, CA 93015, USA","postal_code"
"06111005002","Ventura County",34.2329791814483,-119.137174245723,"Oxnard","Oxnard, CA 93036, USA","postal_code"
"06099003909","Stanislaus County",37.5167139171843,-120.86071782232,"Turlock","Turlock, CA 95382, USA","postal_code"
"06099000304","Stanislaus County",37.7231481189214,-120.928366437126,"Riverbank","Riverbank, CA, USA","locality"
"06099003908","Stanislaus County",37.506438945107,-120.854305699783,"Turlock","Turlock, CA, USA","locality"
"06099002501","Stanislaus County",37.5947746735921,-120.984481098261,"Ceres","Ceres, CA, USA","locality"
"06099003202","Stanislaus County",37.4647947359446,-121.144969002334,"Patterson","Patterson, CA 95363, USA","locality"
"06099001603","Stanislaus County",37.6161493520051,-121.025832824937,"West Modesto","West Modesto, CA, USA","locality"
"06099002200","Stanislaus County",37.6238699832491,-121.004322115546,"Modesto","Modesto, CA 95351, USA","postal_code"
"06099000202","Stanislaus County",37.7554809655723,-120.859777752534,"Oakdale","Oakdale, CA 95361, USA","locality"
"06099003201","Stanislaus County",37.4731101331046,-121.119198827256,"Patterson","Patterson, CA 95363, USA","locality"
"06067006201","Sacramento County",38.6191127939588,-121.407942537275,"Bohemian Village","Bohemian Village, Arden-Arcade, CA 95821, USA","neighborhood"
"06067006500","Sacramento County",38.6441700576098,-121.438565595505,"Robla","Robla, Sacramento, CA, USA","neighborhood"
"06067008139","Sacramento County",38.6711001710678,-121.266975397689,"Edgewood","Edgewood, Citrus Heights, CA 95610, USA","neighborhood"
"06095252608","Solano County",38.2662934068369,-122.021612364111,"Fairfield","Fairfield, CA 94533, USA","postal_code"
"06095252605","Solano County",38.2655649004455,-122.039682142062,"Fairfield","Fairfield, CA 94533, USA","postal_code"
"06095252606","Solano County",38.2654912279755,-122.029580204727,"Fairfield","Fairfield, CA 94533, USA","postal_code"
"06095250701","Solano County",38.089986450835,-122.244856530439,"Vallejo","Vallejo, CA 94590, USA","postal_code"
"06095250900","Solano County",38.1015279403614,-122.259789224182,"Vallejo","Vallejo, CA 94590, USA","postal_code"
"06095251902","Solano County",38.1480355443845,-122.2441081564,"Vallejo","Vallejo, CA 94589, USA","postal_code"
"06095251903","Solano County",38.1487071363695,-122.226665904274,"Vallejo","Vallejo, CA 94589, USA","postal_code"
"06095251000","Solano County",38.1011243184996,-122.248541527451,"Vallejo","Vallejo, CA 94590, USA","postal_code"
"06095250300","Solano County",38.1048774787554,-122.223583300991,"Vallejo","Vallejo, CA 94591, USA","postal_code"
"06095252402","Solano County",38.2249768617585,-122.067679377228,"Suisun City","Suisun City, CA 94534, USA","postal_code"
"06095252502","Solano County",38.2470347512698,-122.044933232017,"Fairfield","Fairfield, CA 94533, USA","postal_code"
"06059074200","Orange County",33.7216725983418,-117.870084663372,"Santa Ana Memorial Park","Santa Ana Memorial Park, Santa Ana, CA 92707, USA","neighborhood"
"06059074408","Orange County",33.7377146223771,-117.836640084092,"Tustin","Tustin, CA 92780, USA","postal_code"
"06059074805","Orange County",33.7371732299176,-117.90265463322,"Santa Ana","Santa Ana, CA 92704, USA","postal_code"
"06059074901","Orange County",33.7432714620403,-117.878908083227,"Pico-Lowell","Pico-Lowell, Santa Ana, CA, USA","neighborhood"
"06059075004","Orange County",33.7582622722679,-117.865694894255,"French Court","French Court, Santa Ana, CA 92701, USA","neighborhood"
"06029002813","Kern County",35.3431098354036,-119.050630108654,"Bakersfield","Bakersfield, CA 93309, USA","postal_code"
"06029003103","Kern County",35.3095662262048,-118.994526886134,"Rexland Acres","Rexland Acres, Bakersfield, CA 93307, USA","neighborhood"
"06029003122","Kern County",35.3031439806163,-119.012140739748,"Bakersfield","Bakersfield, CA, USA","locality"
"06029000200","Kern County",35.4163336083491,-119.036058825571,"Oildale","Oildale, CA 93308, USA","locality"
"06029001101","Kern County",35.3682610477713,-118.922670863361,"Bakersfield","Bakersfield, CA 93306, USA","postal_code"
"06029001202","Kern County",35.3771389601148,-118.975383093919,"Bakersfield","Bakersfield, CA 93305, USA","postal_code"
"06029000400","Kern County",35.4056122602369,-119.033562851203,"Oildale","Oildale, CA 93308, USA","locality"
"06077002701","San Joaquin County",37.9647928280053,-121.235995352104,"Garden Acres","Garden Acres, CA 95215, USA","locality"
"06077003111","San Joaquin County",37.9948001691375,-121.324869474917,"Lakeview","Lakeview, Stockton, CA, USA","neighborhood"
"06077003306","San Joaquin County",38.0148793952183,-121.306651119189,"Lakeview","Lakeview, Stockton, CA, USA","neighborhood"
"06077003305","San Joaquin County",38.0019053411639,-121.307265093064,"Lakeview","Lakeview, Stockton, CA, USA","neighborhood"
"06077000300","San Joaquin County",37.9529806148336,-121.298504369459,"Civic Center","Civic Center, Stockton, CA, USA","neighborhood"
"06077001500","San Joaquin County",37.9827659626076,-121.276063522036,"Pacific","Pacific, Stockton, CA, USA","neighborhood"
"06077003210","San Joaquin County",38.0310634414248,-121.346093115675,"Sherwoods Manor","Sherwoods Manor, Stockton, CA, USA","neighborhood"
"06077003307","San Joaquin County",38.0131209350829,-121.315970138626,"Lakeview","Lakeview, Stockton, CA, USA","neighborhood"
"06077003407","San Joaquin County",38.0094607455592,-121.295794872477,"Valley Oak","Valley Oak, Stockton, CA, USA","neighborhood"
"06077004001","San Joaquin County",38.1371769158763,-121.466134813606,"Lodi","Lodi, CA 95242, USA","postal_code"
"06077004203","San Joaquin County",38.1423441300638,-121.278502739237,"Lodi","Lodi, CA, USA","locality"
"06077000900","San Joaquin County",37.9575887027607,-121.327720807887,"Stockton","Stockton, CA 95203, USA","postal_code"
"06073010013","San Diego County",32.555551699526,-117.047455180162,"San Ysidro","San Ysidro, San Diego, CA, USA","neighborhood"
"06073010111","San Diego County",32.5641818993981,-117.066239639661,"San Ysidro","San Ysidro, San Diego, CA, USA","neighborhood"
"06073010502","San Diego County",32.5860463283778,-117.112954291712,"Imperial Beach","Imperial Beach, CA, USA","locality"
"06073012002","San Diego County",32.6817744859338,-117.079255808664,"Lincoln Acres","Lincoln Acres, CA 91950, USA","postal_code"
"06071003612","San Bernardino County",34.076066824256,-117.358973996552,"Colton","Colton, CA, USA","locality"
"06071003803","San Bernardino County",34.112961205564,-117.364221454274,"Rialto","Rialto, CA, USA","locality"
"06071003804","San Bernardino County",34.1243694177723,-117.351628924139,"Rialto","Rialto, CA, USA","locality"
"06071004001","San Bernardino County",34.0557931587165,-117.403311397599,"Bloomington","Bloomington, CA, USA","locality"
"06071004003","San Bernardino County",34.0437255868094,-117.386763939565,"Bloomington","Bloomington, CA 92316, USA","postal_code"
"06071004101","San Bernardino County",34.1657154674785,-117.347705877495,"Muscoy","Muscoy, CA 92407, USA","locality"
"06071004103","San Bernardino County",34.141096010532,-117.331388745211,"Muscoy","Muscoy, CA 92407, USA","locality"
"06071004104","San Bernardino County",34.1506537294712,-117.344667517068,"Muscoy","Muscoy, CA 92407, USA","locality"
"06071004301","San Bernardino County",34.1115350658939,-117.346035417172,"Terrace","Terrace, San Bernardino, CA, USA","neighborhood"
"06071004302","San Bernardino County",34.1140428355936,-117.330934716784,"Carvedale","Carvedale, San Bernardino, CA, USA","neighborhood"
"06071004403","San Bernardino County",34.0928314543746,-117.340960589753,"Rancho West","Rancho West, San Bernardino, CA, USA","neighborhood"
"06071004404","San Bernardino County",34.1014098837497,-117.341974618539,"Terrace","Terrace, San Bernardino, CA, USA","neighborhood"
"06071004505","San Bernardino County",34.1720191347491,-117.28519846712,"Wildwood Park","Wildwood Park, San Bernardino, CA, USA","neighborhood"
"06071004507","San Bernardino County",34.1689668126612,-117.301735645966,"Arrowhead Farms","Arrowhead Farms, San Bernardino, CA 92407, USA","neighborhood"
"06071004603","San Bernardino County",34.1566319178141,-117.308122780876,"Shandin Hills","Shandin Hills, San Bernardino, CA, USA","neighborhood"
"06071004604","San Bernardino County",34.1420605693765,-117.308077374997,"Muscupiabe","Muscupiabe, San Bernardino, CA 92405, USA","neighborhood"
"06071005701","San Bernardino County",34.1006406302602,-117.292606610524,"San Bernardino","San Bernardino, CA 92401, USA","postal_code"
"06071006203","San Bernardino County",34.1456762509902,-117.251433193765,"NE - Sterling","NE - Sterling, San Bernardino, CA, USA","neighborhood"
"06071006204","San Bernardino County",34.1392094838119,-117.253566552655,"NE - Sterling","NE - Sterling, San Bernardino, CA, USA","neighborhood"
"06071006604","San Bernardino County",34.0900259533522,-117.333774669579,"Colton","Colton, CA, USA","locality"
"06071007303","San Bernardino County",34.055684610969,-117.268241793649,"Loma Linda","Loma Linda, CA 92354, USA","postal_code"
"06071007305","San Bernardino County",34.0583655642917,-117.253122581148,"North Central","North Central, Loma Linda, CA, USA","neighborhood"
"06019006602","Fresno County",36.5908575048053,-119.440230783671,"Reedley","Reedley, CA, USA","locality"
"06019002200","Fresno County",36.758539470581,-119.803702362589,"Tower District","Tower District, Fresno, CA, USA","neighborhood"
"06019000600","Fresno County",36.7430631460484,-119.793357233346,"Mural District","Mural District, Fresno, CA, USA","neighborhood"
"06019002800","Fresno County",36.7577994017348,-119.745370194704,"Fresno","Fresno, CA 93703, USA","postal_code"
"06019006802","Fresno County",36.6012975856662,-119.496502575792,"Reedley","Reedley, CA 93654, USA","postal_code"
"06029002000","Kern County",35.3604275506323,-119.010928835724,"Oleander/Sunset","Oleander/Sunset, Bakersfield, CA, USA","neighborhood"
"06029002700","Kern County",35.3461386206963,-119.030019922416,"Benton Park","Benton Park, Bakersfield, CA, USA","neighborhood"
"06039000507","Madera County",37.0394163662862,-119.993868038516,"Madera","Madera, CA 93638, USA","postal_code"
"06039000602","Madera County",36.9719026173456,-120.060951768304,"Madera","Madera, CA, USA","locality"
"06037201200","Los Angeles County",34.0887081947492,-118.178540629392,"Los Angeles","Los Angeles, CA 90032, USA","postal_code"
"06037201501","Los Angeles County",34.0865636765305,-118.164655518631,"Los Angeles","Los Angeles, CA 90032, USA","postal_code"
"06037201700","Los Angeles County",34.0674315364819,-118.170888515994,"Los Angeles","Los Angeles, CA 90032, USA","postal_code"
"06037203300","Los Angeles County",34.0597595171414,-118.206282311899,"Los Angeles","Los Angeles, CA 90033, USA","postal_code"
"06037208610","Los Angeles County",34.0721590664941,-118.281772469732,"Historic Filipinotown","Historic Filipinotown, Los Angeles, CA, USA","neighborhood"
"06037208620","Los Angeles County",34.0697090360213,-118.277982838604,"Rampart Village","Rampart Village, Los Angeles, CA, USA","neighborhood"
"06037209102","Los Angeles County",34.0551862338655,-118.267521239378,"Westlake South","Westlake South, Los Angeles, CA, USA","neighborhood"
"06037900602","Los Angeles County",34.7114453216133,-118.121067387058,"Lancaster","Lancaster, CA, USA","locality"
"06075026004","San Francisco County",37.7178905039313,-122.435700812452,"Excelsior","Excelsior, San Francisco, CA, USA","neighborhood"
"06075025403","San Francisco County",37.7337689990167,-122.420561870408,"St. Marys Park","St. Marys Park, San Francisco, CA, USA","neighborhood"
"06075035300","San Francisco County",37.7425004197421,-122.497843302089,"San Francisco","San Francisco, CA 94116, USA","postal_code"
"06075010600","San Francisco County",37.7993784254709,-122.406387937662,"North Beach","North Beach, San Francisco, CA, USA","neighborhood"
"06075061000","San Francisco County",37.7126439659561,-122.38544040507,"Candlestick Point SRA","Candlestick Point SRA, San Francisco, CA, USA","neighborhood"
"06075020800","San Francisco County",37.7594331436717,-122.419148663796,"Mission District","Mission District, San Francisco, CA, USA","neighborhood"
"06075010700","San Francisco County",37.7985139857767,-122.410046646417,"North Beach","North Beach, San Francisco, CA, USA","neighborhood"
"06075010100","San Francisco County",37.8084809911817,-122.410899036552,"Fisherman's Wharf","Fisherman's Wharf, San Francisco, CA, USA","neighborhood"
"06073015902","San Diego County",32.7840083566196,-116.969699679631,"El Cajon","El Cajon, CA 92020, USA","postal_code"
"06001433000","Alameda County",37.7158643164734,-122.135471044524,"Upper Bal","Upper Bal, San Leandro, CA 94578, USA","neighborhood"
"06001433200","Alameda County",37.701750260224,-122.147078479504,"Floresta Gardens - Bradrick","Floresta Gardens - Bradrick, San Leandro, CA, USA","neighborhood"
"06001437600","Alameda County",37.6353608023763,-122.080483476414,"Harder-Tennyson","Harder-Tennyson, Hayward, CA 94544, USA","neighborhood"
"06071001803","San Bernardino County",34.0409508367712,-117.617420944017,"Ontario","Ontario, CA 91761, USA","postal_code"
"06071002901","San Bernardino County",34.1048557809129,-117.430374386241,"Fontana","Fontana, CA 92335, USA","postal_code"
"06071002902","San Bernardino County",34.1030719288565,-117.422734046318,"Fontana","Fontana, CA 92335, USA","postal_code"
"06071010018","San Bernardino County",34.4136000756885,-117.343359712833,"Hesperia","Hesperia, CA, USA","locality"
"06071009500","San Bernardino County",34.8906314684851,-117.026459959535,"Barstow","Barstow, CA, USA","locality"
"06071009713","San Bernardino County",34.5287470717865,-117.172965676887,"Apple Valley","Apple Valley, CA, USA","locality"
"06071009716","San Bernardino County",34.542565946499,-117.226710925363,"Apple Valley","Apple Valley, CA, USA","locality"
"06071010409","San Bernardino County",34.2340483989324,-115.541404330566,"TWENTYNIN PLM","TWENTYNIN PLM, CA 92277, USA","postal_code"
"06071010411","San Bernardino County",34.1517901582782,-116.431302800222,"Yucca Valley","Yucca Valley, CA 92284, USA","locality"
"06071010700","San Bernardino County",34.8240688425889,-114.675048381622,"San Bernardino County","San Bernardino County, CA, USA","administrative_area_level_2"
"06071010019","San Bernardino County",34.4044578287878,-117.317232240145,"Hesperia","Hesperia, CA, USA","locality"
"06071010022","San Bernardino County",34.4033597505526,-117.251605176362,"Hesperia","Hesperia, CA, USA","locality"
"06071011800","San Bernardino County",34.8338077610461,-117.121354520842,"Barstow","Barstow, CA 92311, USA","postal_code"
"06071010012","San Bernardino County",34.4540612922332,-117.268361520536,"Hesperia","Hesperia, CA, USA","locality"
"06085501401","Santa Clara County",37.3515633911562,-121.869720406192,"Roosevelt Park","Roosevelt Park, San Jose, CA, USA","neighborhood"
"06085503117","Santa Clara County",37.3274092875169,-121.851598515154,"Roberts - Walnut Woods","Roberts - Walnut Woods, San Jose, CA 95122, USA","neighborhood"
"06085503118","Santa Clara County",37.3186902023411,-121.842999911105,"Summerside","Summerside, San Jose, CA, USA","neighborhood"
"06085503121","Santa Clara County",37.3061693439198,-121.872515045724,"San Jose","San Jose, CA 95112, USA","postal_code"
"06085503122","Santa Clara County",37.3125122066188,-121.856869236429,"San Jose","San Jose, CA 95112, USA","postal_code"
"06085503123","Santa Clara County",37.2976690499039,-121.877883069314,"Evans","Evans, San Jose, CA 95125, USA","neighborhood"
"06085508800","Santa Clara County",37.3851460994759,-122.024780520042,"Lowlanders","Lowlanders, Sunnyvale, CA, USA","neighborhood"
"06037481202","Los Angeles County",34.0980685548903,-118.081516606158,"San Gabriel","San Gabriel, CA 91776, USA","postal_code"
"06037481800","Los Angeles County",34.0653167145322,-118.140753822858,"Alhambra","Alhambra, CA 91803, USA","postal_code"
"06037482001","Los Angeles County",34.0553267627346,-118.159770859553,"Monterey Park","Monterey Park, CA 91754, USA","postal_code"
"06037482002","Los Angeles County",34.0488369189586,-118.148267517536,"Monterey Park","Monterey Park, CA 91754, USA","postal_code"
"06037482522","Los Angeles County",34.0409049230798,-118.093947870477,"Montebello","Montebello, CA, USA","locality"
"06037500600","Los Angeles County",34.0079928000284,-118.088324333219,"El Rancho","El Rancho, Pico Rivera, CA, USA","neighborhood"
"06037543100","Los Angeles County",33.8810329910044,-118.253953084136,"Compton","Compton, CA 90220, USA","postal_code"
"06037543202","Los Angeles County",33.8790462005842,-118.230391300585,"Compton","Compton, CA 90220, USA","postal_code"
"06037503703","Los Angeles County",33.9100264648003,-117.985396775772,"La Mirada","La Mirada, CA, USA","locality"
"06059099249","Orange County",33.7418244498303,-117.916080036855,"Santa Anita","Santa Anita, Santa Ana, CA, USA","neighborhood"
"06067007403","Sacramento County",38.6793689830801,-121.377467370212,"Mcclellan Meadows","Mcclellan Meadows, North Highlands, CA 95660, USA","neighborhood"
"06067007422","Sacramento County",38.6917962517473,-121.340923327404,"Andrea Boulevard Gold Run Avenue","Andrea Boulevard Gold Run Avenue, Foothill Farms, CA 95842, USA","neighborhood"
"06067007501","Sacramento County",38.6686592769401,-121.344276763292,"Foothill Farms","Foothill Farms, CA, USA","locality"
"06067007701","Sacramento County",38.6172437973613,-121.337312895949,"Carmichael","Carmichael, CA 95608, USA","postal_code"
"06037404901","Los Angeles County",34.0957325245003,-117.976913161229,"Baldwin Park","Baldwin Park, CA, USA","locality"
"06037408401","Los Angeles County",34.0182786531694,-117.981903852623,"Hacienda Heights","Hacienda Heights, CA, USA","locality"
"06037408402","Los Angeles County",34.0154356881121,-118.004323317932,"Hacienda Heights","Hacienda Heights, CA, USA","locality"
"06037910402","Los Angeles County",34.5834907442631,-118.125619546047,"Palmdale","Palmdale, CA, USA","locality"
"06037181600","Los Angeles County",34.1297233938978,-118.209740658256,"Eagle Rock","Eagle Rock, CA 90041, USA","postal_code"
"06037191420","Los Angeles County",34.0851214864644,-118.288102909716,"Los Angeles","Los Angeles, CA 90029, USA","postal_code"
"06037408212","Los Angeles County",33.9942961392668,-117.879282335547,"Rowland Heights","Rowland Heights, CA, USA","locality"
"06037408626","Los Angeles County",33.9850725241195,-117.919739879126,"Rowland Heights","Rowland Heights, CA, USA","locality"
"06037431800","Los Angeles County",34.1196211621509,-118.061105655188,"Arcadia","Arcadia, CA 91007, USA","postal_code"
"06065042723","Riverside County",33.7246664587127,-117.078380192777,"Menifee","Menifee, CA 92596, USA","postal_code"
"06065043001","Riverside County",33.6567078941227,-117.328903985964,"Wildomar","Wildomar, CA 92595, USA","postal_code"
"06065043005","Riverside County",33.7062728715252,-117.360642022333,"Lake Elsinore","Lake Elsinore, CA, USA","locality"
"06065043306","Riverside County",33.7332577448743,-116.999665666446,"Hemet","Hemet, CA, USA","locality"
"06065043403","Riverside County",33.7372830156202,-116.968696461843,"Hemet","Hemet, CA 92543, USA","postal_code"
"06077005110","San Joaquin County",37.7985106924583,-121.200627137611,"Manteca","Manteca, CA 95336, USA","postal_code"
"06077003602","San Joaquin County",38.0119884785709,-121.174596701504,"Stockton","Stockton, CA 95215, USA","postal_code"
"06077004302","San Joaquin County",38.1228277305605,-121.280176951287,"Lodi","Lodi, CA, USA","locality"
"06077001800","San Joaquin County",37.9672953770973,-121.254225895035,"Stockton","Stockton, CA 95205, USA","postal_code"
"06077000600","San Joaquin County",37.9483460957981,-121.273110597019,"Stockton","Stockton, CA 95205, USA","postal_code"
"06077003113","San Joaquin County",37.9844935999034,-121.324774780696,"Pacific","Pacific, Stockton, CA, USA","neighborhood"
"06077005126","San Joaquin County",37.8193805774534,-121.221737551812,"Manteca","Manteca, CA 95336, USA","postal_code"
"06077003406","San Joaquin County",38.0247683690605,-121.30099596043,"Valley Oak","Valley Oak, Stockton, CA, USA","neighborhood"
"06077005109","San Joaquin County",37.7989661873999,-121.210707118321,"Manteca","Manteca, CA 95336, USA","postal_code"
"06077000500","San Joaquin County",37.9626058957256,-121.276838733717,"Civic Center","Civic Center, Stockton, CA, USA","neighborhood"
"06065030101","Riverside County",33.9971131816672,-117.352032447361,"Riverside","Riverside, CA 92507, USA","postal_code"
"06065030103","Riverside County",33.9928146200981,-117.36563430048,"Downtown Riverside","Downtown Riverside, Riverside, CA, USA","neighborhood"
"06065031601","Riverside County",33.9154288104237,-117.448641616579,"Arlington","Arlington, Riverside, CA 92503, USA","neighborhood"
"06065040101","Riverside County",34.01960606249,-117.397101594758,"Jurupa Valley","Jurupa Valley, CA 92509, USA","postal_code"
"06037402600","Los Angeles County",34.0696838008596,-117.7432184021,"Pomona","Pomona, CA 91767, USA","postal_code"
"06037402902","Los Angeles County",34.0340195946254,-117.744961894896,"Phillips Ranch","Phillips Ranch, CA 91766, USA","postal_code"
"06037403000","Los Angeles County",34.0374930604575,-117.757204276227,"Phillips Ranch","Phillips Ranch, CA 91766, USA","postal_code"
"06037404701","Los Angeles County",34.0720823032125,-117.996502063711,"Baldwin Park","Baldwin Park, CA, USA","locality"
"06037404703","Los Angeles County",34.0644832146568,-117.989253752099,"Baldwin Park","Baldwin Park, CA, USA","locality"
"06037405101","Los Angeles County",34.0958306404726,-117.961691203166,"Baldwin Park","Baldwin Park, CA, USA","locality"
"06037405600","Los Angeles County",34.0796741987481,-117.915558430423,"West Covina","West Covina, CA 91791, USA","postal_code"
"06037405900","Los Angeles County",34.103075333667,-117.890251561699,"Covina","Covina, CA 91722, USA","postal_code"
"06037407400","Los Angeles County",34.0523638577363,-117.957763574776,"West Covina","West Covina, CA 91790, USA","postal_code"
"06037408624","Los Angeles County",33.9934354817635,-117.949062563456,"Hacienda Heights","Hacienda Heights, CA, USA","locality"
"06037480012","Los Angeles County",34.1180317481078,-118.074058118147,"East San Gabriel","East San Gabriel, CA 91775, USA","locality"
"06037462500","Los Angeles County",34.1655603098368,-118.101915798789,"Pasadena","Pasadena, CA 91104, USA","postal_code"
"06071007409","San Bernardino County",34.1248919255334,-117.210885853049,"San Andreas","San Andreas, San Bernardino, CA 92346, USA","neighborhood"
"06071007410","San Bernardino County",34.1321596823813,-117.210886783699,"San Andreas","San Andreas, San Bernardino, CA 92346, USA","neighborhood"
"06071007603","San Bernardino County",34.115143240068,-117.219911673782,"Cypress","Cypress, Highland, CA 92346, USA","neighborhood"
"06071008710","San Bernardino County",34.0257037605459,-117.049096413984,"Yucaipa","Yucaipa, CA, USA","locality"
"06071009109","San Bernardino County",34.4143078157193,-117.538264158249,"Phelan","Phelan, CA 92371, USA","locality"
"06037293201","Los Angeles County",33.8310044571438,-118.304243121858,"Harbor Gateway South","Harbor Gateway South, Los Angeles, CA, USA","neighborhood"
"06037294810","Los Angeles County",33.779526475298,-118.271494514922,"Wilmington","Wilmington, CA 90744, USA","postal_code"
"06037301502","Los Angeles County",34.1723661050378,-118.288661444857,"Grandview","Grandview, Glendale, CA 91201, USA","neighborhood"
"06037301601","Los Angeles County",34.1643493537916,-118.289357403021,"Grand Central","Grand Central, Glendale, CA 91201, USA","neighborhood"
"06037183620","Los Angeles County",34.1151759741159,-118.189852314052,"Highland Park","Highland Park, Los Angeles, CA, USA","neighborhood"
"06037199110","Los Angeles County",34.0793616083597,-118.197403907555,"Lincoln Heights","Lincoln Heights, Los Angeles, CA, USA","neighborhood"
"06037191720","Los Angeles County",34.0887897385399,-118.312361056623,"West Hollywood","West Hollywood, CA 90038, USA","postal_code"
"06037197200","Los Angeles County",34.0904016048034,-118.234511994064,"Elysian Valley","Elysian Valley, Los Angeles, CA, USA","neighborhood"
"06037199900","Los Angeles County",34.0650794539509,-118.211575700521,"Lincoln Heights","Lincoln Heights, Los Angeles, CA, USA","neighborhood"
"06037576401","Los Angeles County",33.7789740388962,-118.178505831474,"Eastside","Eastside, Long Beach, CA, USA","neighborhood"
"06037600202","Los Angeles County",33.9426035791791,-118.299142286154,"Westmont","Westmont, CA, USA","locality"
"06037600400","Los Angeles County",33.9369543503262,-118.314087322478,"Westmont","Westmont, CA, USA","locality"
"06037600602","Los Angeles County",33.941620279098,-118.330759430055,"Inglewood","Inglewood, CA 90303, USA","postal_code"
"06083002009","Santa Barbara County",34.8722878759365,-120.42771589008,"Orcutt","Orcutt, CA 93455, USA","locality"
"06083002103","Santa Barbara County",34.9307366815218,-120.427100113828,"Santa Maria","Santa Maria, CA, USA","locality"
"06083002209","Santa Barbara County",34.9729700577048,-120.430736795288,"Santa Maria","Santa Maria, CA, USA","locality"
"06083002706","Santa Barbara County",34.6507194940195,-120.448723279915,"Lompoc","Lompoc, CA, USA","locality"
"06083002206","Santa Barbara County",34.9567333489956,-120.426592355828,"Santa Maria","Santa Maria, CA, USA","locality"
"06083002303","Santa Barbara County",34.9641602225959,-120.444519074276,"Santa Maria","Santa Maria, CA, USA","locality"
"06083002702","Santa Barbara County",34.6431154116754,-120.466639511411,"Lompoc","Lompoc, CA, USA","locality"
"06083002806","Santa Barbara County",34.6518713279154,-120.479756568871,"Lompoc","Lompoc, CA, USA","locality"
"06083001800","Santa Barbara County",34.7886931708156,-119.787974008159,"Santa Barbara County","Santa Barbara County, CA, USA","administrative_area_level_2"
"06067000600","Sacramento County",38.5854810779693,-121.491677267724,"Alkali Flat","Alkali Flat, Sacramento, CA 95814, USA","neighborhood"
"06067000700","Sacramento County",38.5818794632261,-121.502703260116,"Downtown","Downtown, Sacramento, CA, USA","neighborhood"
"06067002200","Sacramento County",38.557937934372,-121.509981701737,"Upper Land Park","Upper Land Park, Sacramento, CA, USA","neighborhood"
"06067003000","Sacramento County",38.5358632882335,-121.42959727492,"Tahoe Park South","Tahoe Park South, Sacramento, CA 95820, USA","neighborhood"
"06067004905","Sacramento County",38.4777446257489,-121.439167546333,"Parkway","Parkway, Sacramento, CA 95823, USA","neighborhood"
"06067009008","Sacramento County",38.5874253807166,-121.298550898464,"Mills Park Estates","Mills Park Estates, Rancho Cordova, CA 95670, USA","neighborhood"
"06073013102","San Diego County",32.6166605549659,-117.065727052233,"Chula Vista","Chula Vista, CA 91911, USA","postal_code"
"06001441602","Alameda County",37.5569601919716,-122.021234400687,"Cabrillo","Cabrillo, Fremont, CA, USA","neighborhood"
"06001403300","Alameda County",37.7945364072633,-122.266406945028,"Produce and Waterfront","Produce and Waterfront, Oakland, CA, USA","neighborhood"
"06001401300","Alameda County",37.8180998653566,-122.26671323044,"Pill Hill","Pill Hill, Oakland, CA, USA","neighborhood"
"06001408800","Alameda County",37.758803997116,-122.196942205162,"Coliseum","Coliseum, Oakland, CA 94621, USA","neighborhood"
"06001403000","Alameda County",37.8004265176582,-122.270732005985,"Chinatown","Chinatown, Oakland, CA 94607, USA","neighborhood"
"06111003012","Ventura County",34.2350756683004,-119.180105068108,"South Bank","South Bank, Oxnard, CA 93036, USA","neighborhood"
"06111003011","Ventura County",34.2242570773526,-119.190385325021,"Sierra Linda","Sierra Linda, Oxnard, CA 93036, USA","neighborhood"
"06111003801","Ventura County",34.1860971751253,-119.183397686154,"Kamala Park","Kamala Park, Oxnard, CA, USA","neighborhood"
"06111003802","Ventura County",34.1781865667157,-119.18162786518,"Kamala Park","Kamala Park, Oxnard, CA, USA","neighborhood"
"06111004506","Ventura County",34.1511164572203,-119.182135771221,"South Winds","South Winds, Oxnard, CA 93033, USA","neighborhood"
"06111004710","Ventura County",34.1642973293032,-119.156526959261,"College Park","College Park, Oxnard, CA 93033, USA","neighborhood"
"06111004711","Ventura County",34.1679536657737,-119.163289055228,"College Estates","College Estates, Oxnard, CA 93033, USA","neighborhood"
"06111004715","Ventura County",34.1391596722614,-119.145878442776,"Oxnard","Oxnard, CA 93033, USA","postal_code"
"06111004716","Ventura County",34.1859639103327,-119.151142914633,"Oxnard","Oxnard, CA 93033, USA","postal_code"
"06037127920","Los Angeles County",34.1975654804771,-118.435622487441,"Van Nuys","Van Nuys, CA 91405, USA","postal_code"
"06037572400","Los Angeles County",33.8236967170035,-118.208999175337,"Upper Westside","Upper Westside, Long Beach, CA 90810, USA","neighborhood"
"06037572800","Los Angeles County",33.7952959757746,-118.22120872062,"Westside","Westside, Long Beach, CA 90810, USA","neighborhood"
"06037573201","Los Angeles County",33.8006191423351,-118.185318182948,"Poly High","Poly High, Long Beach, CA, USA","neighborhood"
"06037573300","Los Angeles County",33.793291109789,-118.175707879119,"Poly High","Poly High, Long Beach, CA, USA","neighborhood"
"06037218210","Los Angeles County",34.0427907417028,-118.342305583507,"Los Angeles","Los Angeles, CA 90019, USA","postal_code"
"06037218600","Los Angeles County",34.037185241042,-118.342741218193,"Los Angeles","Los Angeles, CA 90016, USA","postal_code"
"06037218900","Los Angeles County",34.0326941416095,-118.323017132248,"Jefferson Park","Jefferson Park, Los Angeles, CA, USA","neighborhood"
"06037219300","Los Angeles County",34.0267587845738,-118.331829961545,"Crenshaw","Crenshaw, Los Angeles, CA, USA","neighborhood"
"06037221220","Los Angeles County",34.0435736929692,-118.29602144126,"Pico Union","Pico Union, Los Angeles, CA, USA","neighborhood"
"06037224010","Los Angeles County",34.0367637343291,-118.265897927572,"South Park","South Park, Los Angeles, CA, USA","neighborhood"
"06037224600","Los Angeles County",34.0222988724644,-118.271802295724,"Dockweiler","Dockweiler, CA 90007, USA","postal_code"
"06085508900","Santa Clara County",37.3910522759418,-122.006382610507,"San Miguel","San Miguel, Sunnyvale, CA 94085, USA","neighborhood"
"06085509303","Santa Clara County",37.4060297295664,-122.092277613446,"Mountain View","Mountain View, CA 94043, USA","postal_code"
"06071010423","San Bernardino County",34.287125998733,-116.427405415474,"Landers","Landers, CA 92285, USA","postal_code"
"06071010424","San Bernardino County",34.3824133678297,-116.622151119433,"Landers","Landers, CA 92285, USA","postal_code"
"06071011001","San Bernardino County",34.2379144513208,-117.213904822479,"Rimforest","Rimforest, CA 92378, USA","postal_code"
"06071011101","San Bernardino County",34.1732746969379,-117.135223483893,"San Bernardino County","San Bernardino County, CA, USA","administrative_area_level_2"
"06071011203","San Bernardino County",34.2495011092186,-116.882825423703,"Big Bear Lake","Big Bear Lake, CA 92315, USA","postal_code"
"06071011205","San Bernardino County",34.2403828579961,-116.908816641235,"Big Bear Lake","Big Bear Lake, CA 92315, USA","postal_code"
"06071011206","San Bernardino County",34.2421793014804,-116.939043019893,"Fawnskin","Fawnskin, CA 92333, USA","postal_code"
"06071011401","San Bernardino County",34.2515484634677,-116.850422407586,"Big Bear","Big Bear, CA 92314, USA","postal_code"
"06071011403","San Bernardino County",34.2429733088043,-116.825460997214,"Big Bear","Big Bear, CA 92386, USA","postal_code"
"06071011404","San Bernardino County",34.2758969933411,-116.757048141318,"Lucerne Valley","Lucerne Valley, CA 92356, USA","postal_code"
"06071012001","San Bernardino County",34.8693330313864,-117.017635418755,"Barstow","Barstow, CA, USA","locality"
"06071012002","San Bernardino County",34.8765489732698,-116.970205301836,"Daggett","Daggett, CA 92327, USA","postal_code"
"06071012103","San Bernardino County",34.4032505513404,-116.93590686905,"Lucerne Valley","Lucerne Valley, CA 92356, USA","locality"
"06019003809","Fresno County",36.792699454347,-119.870258375794,"Fresno","Fresno, CA 93722, USA","postal_code"
"06037535001","Los Angeles County",33.9714062776901,-118.253139876287,"Firestone Park","Firestone Park, CA 90001, USA","postal_code"
"06037535002","Los Angeles County",33.9711665715619,-118.246519367281,"Firestone Park","Firestone Park, CA 90001, USA","postal_code"
"06037536103","Los Angeles County",33.9427499524889,-118.185047209911,"South Gate","South Gate, CA 90280, USA","postal_code"
"06037536104","Los Angeles County",33.9448784073259,-118.178228350435,"South Gate","South Gate, CA 90280, USA","postal_code"
"06037542103","Los Angeles County",33.9012220018375,-118.196493065213,"East Compton","East Compton, CA 90221, USA","locality"
"06037542104","Los Angeles County",33.9008370701322,-118.190616055796,"East Compton","East Compton, CA 90221, USA","postal_code"
"06037542105","Los Angeles County",33.893211125792,-118.199065065477,"East Compton","East Compton, CA 90221, USA","postal_code"
"06037542106","Los Angeles County",33.8927751323385,-118.188832098279,"East Compton","East Compton, CA 90221, USA","postal_code"
"06037543905","Los Angeles County",33.8161473257489,-118.256280094131,"Carson","Carson, CA 90745, USA","postal_code"
"06037550601","Los Angeles County",33.962269241294,-118.117158323039,"Downey","Downey, CA 90240, USA","postal_code"
"06037551101","Los Angeles County",33.9218213683823,-118.126227437582,"Downey","Downey, CA 90242, USA","postal_code"
"06037552301","Los Angeles County",33.9126442881003,-118.064846920172,"Norwalk","Norwalk, CA, USA","locality"
"06013307102","Contra Costa County",38.0004739372621,-121.815570491524,"Antioch","Antioch, CA 94509, USA","postal_code"
"06029004000","Kern County",35.5030169353123,-119.276294137831,"Shafter","Shafter, CA, USA","locality"
"06071003900","San Bernardino County",34.1002724865155,-117.360516379101,"Rialto","Rialto, CA, USA","locality"
"06071005600","San Bernardino County",34.1173180873699,-117.292211754157,"Feldheym","Feldheym, San Bernardino, CA, USA","neighborhood"
"06107000301","Tulare County",36.5234039211036,-119.428935451424,"Dinuba","Dinuba, CA 93618, USA","postal_code"
"06107001302","Tulare County",36.335434010146,-119.251610762977,"Visalia","Visalia, CA, USA","locality"
"06107001601","Tulare County",36.3027538227431,-119.203883802993,"Farmersville","Farmersville, CA, USA","locality"
"06037432402","Los Angeles County",34.0850352371995,-118.028077855209,"El Monte","El Monte, CA 91731, USA","postal_code"
"06037432801","Los Angeles County",34.0770811263823,-118.0468929383,"El Monte","El Monte, CA 91731, USA","postal_code"
"06037132300","Los Angeles County",34.1974432832197,-118.527325296066,"Reseda","Reseda, Los Angeles, CA, USA","neighborhood"
"06037134101","Los Angeles County",34.2143035178381,-118.566643267467,"Winnetka","Winnetka, CA 91306, USA","postal_code"
"06037481201","Los Angeles County",34.0976179256092,-118.071096253447,"Temple City","Temple City, CA 91780, USA","postal_code"
"06037482521","Los Angeles County",34.0506472938308,-118.099280715216,"South San Gabriel","South San Gabriel, CA 91770, USA","locality"
"06107003002","Tulare County",36.1909169884129,-119.366069972303,"Tulare","Tulare, CA 93274, USA","postal_code"
"06107002304","Tulare County",36.2117011459369,-119.338574737169,"Tulare","Tulare, CA 93274, USA","locality"
"06107000600","Tulare County",36.4957822036968,-119.259305679858,"Cutler","Cutler, CA 93615, USA","postal_code"
"06107000701","Tulare County",36.3982693499656,-119.098410282486,"Woodlake","Woodlake, CA 93286, USA","postal_code"
"06037482502","Los Angeles County",34.0589818702437,-118.103764127214,"Garvey","Garvey, Rosemead, CA, USA","neighborhood"
"06037530801","Los Angeles County",34.0508766059203,-118.188389748066,"Hazard","Hazard, CA 90063, USA","postal_code"
"06037530802","Los Angeles County",34.0522830338102,-118.18131797476,"Hazard","Hazard, CA 90063, USA","postal_code"
"06037531302","Los Angeles County",34.016901835977,-118.182724213654,"Commerce","Commerce, CA 90023, USA","postal_code"
"06037532302","Los Angeles County",34.0096250681075,-118.175833333894,"Commerce","Commerce, CA 90023, USA","postal_code"
"06037532603","Los Angeles County",33.9846942037133,-118.233569135023,"Huntington Park","Huntington Park, CA, USA","locality"
"06037533104","Los Angeles County",33.9766899078945,-118.224408989016,"Huntington Park","Huntington Park, CA, USA","locality"
"06037533201","Los Angeles County",33.9819142223028,-118.208156176207,"Huntington Park","Huntington Park, CA, USA","locality"
"06037533300","Los Angeles County",33.9927923508916,-118.20240510685,"Maywood","Maywood, CA 90270, USA","locality"
"06037533702","Los Angeles County",33.9835572831522,-118.18270534585,"Maywood","Maywood, CA 90270, USA","locality"
"06037241400","Los Angeles County",33.925580000813,-118.275560953667,"Los Angeles","Los Angeles, CA 90061, USA","postal_code"
"06037242200","Los Angeles County",33.9486636656561,-118.239184253463,"Watts","Watts, Los Angeles, CA, USA","neighborhood"
"06037221900","Los Angeles County",34.0267693175802,-118.289562108566,"Dockweiler","Dockweiler, CA 90007, USA","postal_code"
"06037229300","Los Angeles County",33.9980716167943,-118.269670937223,"South Park","South Park, Los Angeles, CA, USA","neighborhood"
"06037236100","Los Angeles County",34.0126393731633,-118.340213139813,"Crenshaw","Crenshaw, Los Angeles, CA, USA","neighborhood"
"06037241120","Los Angeles County",33.9364443150259,-118.276834560962,"Los Angeles","Los Angeles, CA 90061, USA","postal_code"
"06037190510","Los Angeles County",34.0999770699836,-118.311390079898,"Little Armenia","Little Armenia, Los Angeles, CA, USA","neighborhood"
"06037192620","Los Angeles County",34.0776716401286,-118.296054084716,"Oakwood","Oakwood, CA 90004, USA","postal_code"
"06037203710","Los Angeles County",34.0498931971901,-118.200932217221,"Los Angeles","Los Angeles, CA 90033, USA","postal_code"
"06037602104","Los Angeles County",33.9278066267222,-118.348385501752,"Hawthorne","Hawthorne, CA, USA","locality"
"06037132700","Los Angeles County",34.1899650372677,-118.526177581985,"Reseda","Reseda, Los Angeles, CA, USA","neighborhood"
"06037183810","Los Angeles County",34.107365031496,-118.197849503882,"Highland Park","Highland Park, Los Angeles, CA, USA","neighborhood"
"06037188100","Los Angeles County",34.1365489924184,-118.271143417276,"Atwater Village","Atwater Village, Los Angeles, CA 90039, USA","neighborhood"
"06037191201","Los Angeles County",34.0985766736903,-118.296173513086,"Little Armenia","Little Armenia, Los Angeles, CA, USA","neighborhood"
"06037191710","Los Angeles County",34.0865126160094,-118.31695729289,"West Hollywood","West Hollywood, CA 90038, USA","postal_code"
"06037192700","Los Angeles County",34.0800133824932,-118.28810639135,"East Hollywood","East Hollywood, Los Angeles, CA, USA","neighborhood"
"06037406901","Los Angeles County",34.0593296775541,-117.969022167464,"West Puente Valley","West Puente Valley, CA, USA","locality"
"06037406902","Los Angeles County",34.0564405075683,-117.964117882842,"West Puente Valley","West Puente Valley, CA, USA","locality"
"06037407501","Los Angeles County",34.0466402400108,-117.947759389115,"Valinda","Valinda, CA, USA","locality"
"06037407601","Los Angeles County",34.0384096860059,-117.946173097098,"La Puente","La Puente, CA, USA","locality"
"06059087505","Orange County",33.8106405881321,-117.930540817934,"Hermosa Village","Hermosa Village, Anaheim, CA, USA","neighborhood"
"06085503204","Santa Clara County",37.2891789982487,-121.839254288048,"Hillsdale","Hillsdale, San Jose, CA 95111, USA","neighborhood"
"06085503210","Santa Clara County",37.2904579090252,-121.822938694795,"Sylvandale East","Sylvandale East, San Jose, CA 95111, USA","neighborhood"
"06085503401","Santa Clara County",37.3330501597418,-121.839991068631,"Tropicana","Tropicana, San Jose, CA 95122, USA","neighborhood"
"06085503507","Santa Clara County",37.3401850901064,-121.831940337435,"Hillview North","Hillview North, San Jose, CA 95122, USA","neighborhood"
"06019000100","Fresno County",36.7369244964918,-119.792773396071,"Fresno","Fresno, CA 93721, USA","postal_code"
"06019000200","Fresno County",36.7354914701708,-119.805504388574,"Edison","Edison, Fresno, CA, USA","neighborhood"
"06019002702","Fresno County",36.739531985185,-119.745386108987,"Fresno","Fresno, CA 93702, USA","postal_code"
"06019003001","Fresno County",36.7577959523212,-119.709246353114,"Fresno","Fresno, CA 93727, USA","postal_code"
"06019003400","Fresno County",36.7724800664751,-119.779195404449,"Fresno","Fresno, CA 93703, USA","postal_code"
"06019004504","Fresno County",36.8301672889865,-119.790304437446,"Fresno","Fresno, CA 93704, USA","postal_code"
"06019003202","Fresno County",36.7687039505697,-119.743168603921,"Fresno","Fresno, CA 93703, USA","postal_code"
"06019003500","Fresno County",36.7722646547507,-119.795044576918,"Fresno","Fresno, CA 93704, USA","postal_code"
"06019003805","Fresno County",36.7785172386678,-119.854285518612,"Fresno","Fresno, CA 93722, USA","postal_code"
"06019006100","Fresno County",36.6910428127368,-119.572654767164,"Sanger","Sanger, CA 93657, USA","postal_code"
"06019000400","Fresno County",36.7276562320193,-119.776208822328,"Fresno","Fresno, CA 93721, USA","postal_code"
"06019000700","Fresno County",36.7345355908663,-119.827706557908,"Edison","Edison, Fresno, CA, USA","neighborhood"
"06019001100","Fresno County",36.7096955152324,-119.781696292934,"Edison","Edison, Fresno, CA, USA","neighborhood"
"06019001202","Fresno County",36.7026862842958,-119.741027681245,"Roosevelt","Roosevelt, Fresno, CA, USA","neighborhood"
"06019001700","Fresno County",36.6183387209112,-119.728818548083,"Fresno","Fresno, CA 93725, USA","postal_code"
"06019001201","Fresno County",36.7107527062874,-119.757772374173,"Roosevelt","Roosevelt, Fresno, CA, USA","neighborhood"
"06019002300","Fresno County",36.7561221869628,-119.794216166948,"Tower District","Tower District, Fresno, CA, USA","neighborhood"
"06019003803","Fresno County",36.7715478010591,-119.909039309621,"West Side","West Side, Fresno, CA, USA","neighborhood"
"06019004100","Fresno County",36.7959953830782,-119.99486436585,"Fresno","Fresno, CA 93723, USA","postal_code"
"06019004212","Fresno County",36.8150838384082,-119.869015165284,"Fresno","Fresno, CA 93722, USA","postal_code"
"06019004704","Fresno County",36.7829437552247,-119.835248520311,"Fresno","Fresno, CA 93705, USA","postal_code"
"06019002400","Fresno County",36.7583431393343,-119.781017025118,"Fresno","Fresno, CA 93701, USA","postal_code"
"06019002601","Fresno County",36.7468174322065,-119.763430393507,"Fresno","Fresno, CA 93702, USA","postal_code"
"06019003804","Fresno County",36.7790927341839,-119.871308370528,"Fresno","Fresno, CA 93722, USA","postal_code"
"06089012101","Shasta County",40.4629612116856,-122.302936257191,"Anderson","Anderson, CA 96007, USA","locality"
"06089012102","Shasta County",40.4546656898429,-122.271188132915,"Cascade","Cascade, Anderson, CA, USA","neighborhood"
"06065043509","Riverside County",33.8009297443362,-116.955104516972,"GLMN HOT SPGS","GLMN HOT SPGS, CA 92583, USA","postal_code"
"06065044911","Riverside County",33.730959437289,-116.314445766904,"Palm Desert","Palm Desert, CA 92211, USA","postal_code"
"06065045501","Riverside County",33.7070064623076,-116.226110152188,"Indio","Indio, CA 92201, USA","postal_code"
"06065045703","Riverside County",33.6628976876097,-116.170082762233,"Coachella","Coachella, CA 92236, USA","postal_code"
"06065041004","Riverside County",33.9598048506298,-117.49447821223,"Riverside","Riverside, CA 92505, USA","postal_code"
"06073003304","San Diego County",32.7067365878318,-117.090281664557,"Lincoln Park","Lincoln Park, San Diego, CA, USA","neighborhood"
"06073012501","San Diego County",32.6335938891807,-117.093697803572,"Chula Vista","Chula Vista, CA 91910, USA","postal_code"
"06073012502","San Diego County",32.6408289463998,-117.109402030665,"Chula Vista","Chula Vista, CA 91910, USA","postal_code"
"06073014806","San Diego County",32.7713035225333,-117.035205764349,"La Mesa","La Mesa, CA 91942, USA","postal_code"
"06037481101","Los Angeles County",34.0991569848804,-118.106946070457,"San Gabriel","San Gabriel, CA 91776, USA","postal_code"
"06037481401","Los Angeles County",34.0831935877549,-118.103974561193,"San Gabriel","San Gabriel, CA 91776, USA","postal_code"
"06037481902","Los Angeles County",34.0654918213949,-118.150707725843,"Alhambra","Alhambra, CA 91803, USA","postal_code"
"06037208401","Los Angeles County",34.0637659132332,-118.269129799417,"Westlake North","Westlake North, Los Angeles, CA, USA","neighborhood"
"06037208402","Los Angeles County",34.0683667636932,-118.266008994777,"Historic Filipinotown","Historic Filipinotown, Los Angeles, CA, USA","neighborhood"
"06037208501","Los Angeles County",34.069531612385,-118.271946292867,"Historic Filipinotown","Historic Filipinotown, Los Angeles, CA, USA","neighborhood"
"06037208502","Los Angeles County",34.0660490005803,-118.274164509059,"Westlake North","Westlake North, Los Angeles, CA, USA","neighborhood"
"06037208801","Los Angeles County",34.0600948574634,-118.276616373296,"MacArthur Park","MacArthur Park, Los Angeles, CA, USA","neighborhood"
"06071012300","San Bernardino County",34.1390176122664,-117.219758557294,"Amber Hills","Amber Hills, San Bernardino, CA 92346, USA","neighborhood"
"06071012400","San Bernardino County",34.0787548141697,-117.294370131991,"Show Place","Show Place, San Bernardino, CA, USA","neighborhood"
"06071012500","San Bernardino County",34.0600288809082,-117.324034902298,"Colton","Colton, CA, USA","locality"
"06071025100","San Bernardino County",34.504460459934,-114.813359947456,"San Bernardino County","San Bernardino County, CA, USA","administrative_area_level_2"
"06071980200","San Bernardino County",34.5852824807371,-117.371790072046,"Victorville","Victorville, CA 92394, USA","postal_code"
"06073002712","San Diego County",32.7297628314229,-117.073216597426,"Oak Park","Oak Park, San Diego, CA, USA","neighborhood"
"06073003305","San Diego County",32.6978890972792,-117.090068799475,"Lincoln Park","Lincoln Park, San Diego, CA, USA","neighborhood"
"06037601600","Los Angeles County",33.9348000881825,-118.363853773273,"Lennox","Lennox, CA 90304, USA","locality"
"06037601700","Los Angeles County",33.9352170170045,-118.349838390805,"Lennox","Lennox, CA 90304, USA","locality"
"06037232600","Los Angeles County",33.9920923621843,-118.297998383054,"Vermont-Slauson","Vermont-Slauson, Los Angeles, CA, USA","neighborhood"
"06037434004","Los Angeles County",34.0402202586761,-118.032189443982,"South El Monte","South El Monte, CA 91733, USA","locality"
"06037920033","Los Angeles County",34.4590428274894,-118.431397999617,"Santa Clarita","Santa Clarita, CA 91351, USA","postal_code"
"06037910603","Los Angeles County",34.5654631309541,-118.085029490198,"Palmdale","Palmdale, CA, USA","locality"
"06037930200","Los Angeles County",34.3408618656269,-118.288317729752,"Tujunga","Tujunga, CA 91042, USA","postal_code"
"06037540000","Los Angeles County",33.9217081454434,-118.181394758469,"Lynwood","Lynwood, CA, USA","locality"
"06037540902","Los Angeles County",33.9091899823056,-118.273755476721,"Los Angeles","Los Angeles, CA 90061, USA","postal_code"
"06037541500","Los Angeles County",33.9148293497932,-118.2270116879,"Compton","Compton, CA 90222, USA","postal_code"
"06037542401","Los Angeles County",33.8923623143811,-118.210903587703,"East Compton","East Compton, CA 90221, USA","postal_code"
"06037543201","Los Angeles County",33.8846793435624,-118.234394283782,"Compton","Compton, CA 90220, USA","postal_code"
"06037543602","Los Angeles County",33.8177540069421,-118.292847383774,"Torrance","Torrance, CA 90502, USA","postal_code"
"06073013205","San Diego County",32.5969069919242,-117.0828678186,"Chula Vista","Chula Vista, CA 91911, USA","postal_code"
"06047000503","Merced County",37.4200308540102,-120.569007946376,"Winton","Winton, CA 95388, USA","postal_code"
"06047000504","Merced County",37.3941884585775,-120.611119047052,"Winton","Winton, CA 95388, USA","locality"
"06047000505","Merced County",37.3574565810607,-120.649739092689,"Atwater","Atwater, CA 95301, USA","postal_code"
"06047000701","Merced County",37.3473607997327,-120.604700943112,"Atwater","Atwater, CA 95301, USA","locality"
"06047001002","Merced County",37.3405151463212,-120.493639540342,"Merced","Merced, CA, USA","locality"
"06047000801","Merced County",37.3545042689349,-120.579253227865,"Atwater","Atwater, CA 95301, USA","locality"
"06047000301","Merced County",37.3991307870032,-120.695212536937,"Livingston","Livingston, CA 95334, USA","postal_code"
"06047000303","Merced County",37.3419205817486,-120.749365674691,"Livingston","Livingston, CA 95334, USA","postal_code"
